PopNum,NewSiteCode,Latitude,Longitude,range,ecoregion,region,countryORstate,Ann.Mean.Tmp,Mean.Diurn.Rng,Isotherm,Tmp.Seas,Max.Tmp.Wrm.M,Min.Tmp.Cld.M,Tmp.Ann.Rng,Mean.Tmp.Wet.Q,Mean.Tmp.Dry.Q,Mean.Tmp.Wrm.Q,Mean.Tmp.Cld.Q,Ann.Prc,Prc.Wet.M,Prc.Dry.M,Prc.Seas,Prc.Wet.Q,Prc.Dry.Q,Prc.Wrm.Q,Prc.Cld.Q,cmi_max,cmi_mean,cmi_min,cmi_range,gdd0,gdd5,gdd10,gddlgd10,gdgfgd10,gsl,gsp,gst,hurs_max,hurs_mean,hurs_min,hurs_range,ngd0,ngd5,ngd10,npp,pet_penman_max,pet_penman_mean,pet_penman_min,pet_penman_range,rsds_max,rsds_mean,rsds_min,rsds_range,scd,sfcWind_max,sfcWind_mean,sfcWind_min,sfcWind_range,vpd_max,vpd_mean,vpd_min,vpd_range,elev
2,HorseneckBeach1,41.507373,-71.059003,invaded,MIXED_WOOD_PLAINS,Erockies,Massachusetts,2836,39,1.600000024,7259,2954,2711,243,2817,2896,2930,2745,12670,1285,882,117,3434,2855,2902,3170,584,45,-797,1382,38304,23658,12682,311,125,324,11234,2849,6549,6062,5695,854,365,251,187,14464,16553,9825,4637,11915,22125,14547,5994,16131,0,7308,6171,4993,2315,8475,5313,2689,5786,0
5,IslandBeach1,39.799971,-74.093647,invaded,SOUTHEASTERN_PLAINS_FORESTS,Erockies,New_Jersey,2862,67,2.269999981,8030,3012,2717,295,2962,2893,2966,2761,11354,1098,783,99,3029,2691,3006,2736,473,-170,-918,1391,47924,31591,19237,318,101,365,11354,2863,6128,5805,5602,526,365,277,218,15494,18859,10916,4804,14054,22779,15179,6802,15977,0,6544,5748,4586,1958,12513,6962,3062,9451,-2
7,ShaversFork1,38.91184,-79.741269,invaded,SOUTHEASTERN_PLAINS_FORESTS,Erockies,West_Virginia,2831,90,2.900000095,7899,2981,2670,311,2913,2840,2931,2726,16257,1857,1093,186,5249,3424,4845,3481,917,520,54,864,37309,23697,12901,292,106,253,11983,2873,6603,6250,5835,768,305,244,187,14019,14014,7908,2628,11386,21419,14359,6299,15120,106,3710,2956,2006,1704,8326,5080,2039,6287,853
8,Jonesboro1,35.843205,-90.680971,invaded,SOUTHEASTERN_PLAINS_FORESTS,Erockies,Arkansas,2891,96,2.930000067,8358,3053,2727,326,2838,2986,2996,2779,12470,1291,751,182,3657,2442,2546,3088,867,-32,-946,1812,58283,40662,26689,322,71,365,12470,2891,5805,5644,5456,349,365,310,252,16494,18316,10436,3586,14730,23566,16212,7767,15799,0,3665,3073,2284,1381,15475,8896,3324,12151,96
9,Carlyle1,38.008612,-95.393791,invaded,GREAT_PLAINS,Erockies,Kansas,2868,98,2.75999999,9268,3049,2694,355,2962,2744,2985,2744,10948,1602,318,427,4294,1204,3799,1204,49,-251,-899,949,49927,34939,22527,309,86,310,10335,2892,5908,5684,5512,396,341,272,224,15112,20632,11335,3898,16733,23983,15947,7639,16344,39,5799,4964,4040,1759,15110,7899,2585,12525,315
10,Fredericksburg1,30.274167,-98.871944,invaded,GREAT_PLAINS,Erockies,Texas,2919,105,3.779999971,6641,3061,2782,279,2986,2830,3001,2830,7930,990,430,284,2591,1369,2155,1369,-25,-474,-1153,1128,68644,50394,32586,344,34,221,7930,2901,5954,5708,5525,429,365,365,311,11940,17825,11088,4748,13076,24161,17484,10215,13946,0,3052,2661,2186,866,16492,10018,5004,11488,536
12,Springer2,36.426194,-99.397131,invaded,GREAT_PLAINS,Erockies,Oklahoma,2878,115,3.210000038,9119,3069,2710,359,2971,2759,2995,2759,6447,961,197,443,2482,700,2270,700,-100,-576,-1417,1317,53644,37399,24558,312,81,196,6447,2860,5521,5366,5175,346,365,283,232,10142,19936,10974,3572,16364,25203,17530,9128,16075,0,4570,3962,3492,1078,17867,9037,3210,14657,602
14,Springer4,35.290937,-99.505347,invaded,GREAT_PLAINS,Erockies,Oklahoma,2885,115,3.299999952,8813,3069,2719,350,2932,2770,2998,2770,6698,987,212,448,2507,727,2222,727,-212,-703,-1705,1493,56343,39246,25865,316,75,194,6698,2873,5571,5405,5186,385,365,296,242,10459,21718,12446,4696,17022,25278,17792,9552,15726,0,5441,4699,4000,1441,18087,9295,3448,14639,577
15,Springer5,36.61421,-99.571242,invaded,GREAT_PLAINS,Erockies,Oklahoma,2876,118,3.269999981,9133,3069,2708,361,2969,2756,2993,2756,6459,1016,174,462,2516,680,2388,680,-205,-736,-1653,1447,52854,36799,24089,311,82,190,6459,2860,5493,5346,5130,363,365,280,230,10158,22396,12566,4589,17807,25258,17726,9418,15840,0,6004,5194,4639,1365,17766,8959,3180,14586,648
17,DryLakes1,34.55595,-119.243453,invaded,MARINE_WEST_COAST_FOREST,Wrockies,California,2867,124,4.75,5230,3015,2753,262,2812,2935,2936,2804,4694,1082,16,971,2845,58,86,2777,616,-646,-1783,2399,49610,31360,15832,321,86,222,4636,2835,5359,4977,4639,720,365,365,236,7785,17991,10275,3176,14815,30410,20253,9478,20932,0,1963,1772,1511,452,13528,8337,4901,8627,1056
18,Glyndon1,46.846183,-96.476555,invaded,GREAT_PLAINS,Erockies,Minnesota,2788,98,2.24000001,11972,3006,2568,438,2912,2626,2935,2626,6149,1027,148,568,2634,525,2625,525,64,-311,-876,940,31624,20928,12010,278,120,203,4937,2883,6679,5911,5369,1310,231,196,159,9760,16988,8079,1386,15602,22807,14142,4803,18004,159,4776,4448,3949,828,11200,5185,829,10371,292
19,Roosevelt1,30.49524167,-100.0180417,invaded,GREAT_PLAINS,Erockies,Texas,2921,113,3.920000076,6921,3067,2778,289,2963,2829,3007,2829,5426,724,265,317,1819,866,1589,866,-273,-787,-1484,1212,69377,51127,33420,342,35,141,5426,2911,5608,5474,5298,310,365,365,308,8801,18894,12218,5575,13319,24551,18318,10925,13626,0,3885,3375,2810,1076,17724,10794,5141,12583,608
20,Troy1,31.842615,-85.892871,invaded,SOUTHEASTERN_PLAINS_FORESTS,Erockies,Alabama,2912,103,3.75,6488,3050,2775,275,2841,2917,2992,2825,14360,1586,825,165,4091,3050,3952,3758,692,51,-675,1367,65839,47589,30068,344,42,365,14360,2912,6194,5859,5554,640,365,365,303,18033,16757,11116,5064,11693,22413,16496,9194,13219,0,3637,3091,2278,1359,13245,9094,4520,8725,150
22,PagosaSpgs_CO,37.28137,-107.06855,invaded,WESTERN_CORDILLERA,Wrockies,Colorado,2784,134,3.720000029,8140,2978,2617,361,2847,2821,2891,2682,6692,706,254,219,2059,1161,1523,1746,325,-311,-1278,1603,24257,13832,6124,271,143,164,3221,2856,5991,5421,4659,1332,241,179,129,10019,15240,8522,2319,12921,28995,19722,10144,18851,185,1939,1689,1486,453,9763,4878,1600,8163,2320
23,MesaVerde_CO,37.15607,-108.4634,invaded,NORTHAMERICAN_DESERTS,Wrockies,Colorado,2825,137,3.49000001,9387,3032,2638,394,2892,2876,2946,2704,3820,448,114,260,1227,623,915,924,-46,-761,-1782,1736,36602,24099,14165,288,114,127,2443,2850,5638,4897,3915,1723,277,224,175,6507,18934,10708,3264,15670,29931,20327,10313,19618,121,3719,3111,2652,1067,15497,7444,2046,13451,2038
24,IceCaves_NM,35.00007,-108.07323,invaded,NORTHAMERICAN_DESERTS,Wrockies,New_Mexico,2815,134,3.799999952,8346,2997,2645,352,2910,2864,2922,2707,3811,759,183,535,1738,601,1519,703,-59,-644,-1440,1381,32923,20500,10883,285,119,124,2845,2846,5239,4686,3792,1447,278,219,167,6493,16195,9522,3107,13088,29161,20372,10970,18191,111,3469,2698,1822,1647,13446,6887,2319,11127,2361
25,IronCreek_NM,32.90961,-107.8039,invaded,WESTERN_CORDILLERA,Wrockies,New_Mexico,2836,125,4.070000172,6980,2999,2691,308,2912,2835,2924,2746,5665,1183,163,706,3039,611,2660,959,15,-550,-1335,1349,38164,23280,12346,293,106,160,5309,2837,5392,4732,3933,1459,365,252,188,9123,16386,10074,3477,12909,28558,20757,11955,16603,0,2089,1591,1126,963,13838,7381,3274,10564,2415
26,GilaSpgs_NM,33.23028,-108.25768,invaded,WESTERN_CORDILLERA,Wrockies,New_Mexico,2856,133,4.329999924,6661,3016,2709,307,2929,2898,2939,2769,4261,889,128,684,2215,455,1888,817,-40,-667,-1448,1408,45583,28455,15982,307,93,129,4261,2841,5511,4976,4381,1130,365,288,215,7160,16287,10114,3641,12646,28432,20569,11974,16458,0,1493,1131,735,758,14009,7949,3693,10316,1806
27,Carlisle1,40.206715,-77.186863,invaded,SOUTHEASTERN_PLAINS_FORESTS,Erockies,Pennsylvania,2851,93,2.74000001,8777,3023,2683,340,2942,2736,2964,2736,10290,1064,681,132,3002,2160,2840,2160,556,36,-535,1092,44182,29838,18229,303,99,283,8517,2885,5931,5767,5532,399,324,258,205,14472,15063,7973,2223,12840,22105,14507,6298,15807,70,2660,2304,1758,902,12688,6787,2472,10216,143
28,Milford1,42.153639,-71.489122,invaded,MIXED_WOOD_PLAINS,Erockies,Massachusetts,2834,92,2.630000114,8692,3012,2661,351,2791,2939,2946,2722,13364,1268,990,90,3622,3090,3220,3202,929,312,-488,1417,38681,25279,14620,296,112,247,9050,2881,5997,5801,5590,407,299,241,185,14286,14950,7703,2169,12782,21115,14083,6063,15052,113,3224,2896,2404,820,11577,5986,2189,9388,93
29,Vernon1,42.737524,-72.470337,invaded,MIXED_WOOD_PLAINS,Erockies,Vermont,2824,99,2.619999886,9447,3010,2633,377,2837,2712,2945,2700,11246,1061,803,69,3002,2549,2865,2585,701,155,-537,1238,36910,24288,14160,289,113,228,7277,2884,6026,5822,5594,432,277,229,177,13399,14830,7534,2041,12789,21083,13871,5578,15505,132,3026,2659,2128,897,11535,5771,1819,9716,106
30,WRJ1,43.647715,-72.317936,invaded,MIXED_WOOD_PLAINS,Erockies,New_Hampshire,2808,97,2.5,9933,2995,2607,388,2933,2676,2933,2676,9811,1002,675,130,2758,2061,2758,2061,581,126,-393,974,33399,21607,12178,282,118,213,6371,2879,6050,5903,5615,435,258,213,165,12006,13538,6647,1357,12181,20780,13595,5249,15531,146,2126,1871,1465,661,10404,5194,1433,8971,138
31,Libbytown1,43.64944444,-70.28491667,invaded,MIXED_WOOD_PLAINS,Erockies,Maine,2815,54,1.870000005,7988,2954,2665,289,2788,2915,2915,2713,12950,1344,843,140,3761,2883,2941,2891,926,271,-525,1451,32618,19918,10152,293,130,231,8342,2865,6128,5912,5693,435,284,225,164,12610,14724,7745,2548,12176,21596,14045,5427,16169,129,4371,3710,2967,1405,8883,5006,2001,6882,15
32,Edmonton1,53.517284,-113.494199,invaded,GREAT_PLAINS,Erockies,Alberta,2763,101,2.619999886,10432,2960,2576,384,2891,2625,2891,2625,4512,970,113,692,2290,469,2290,469,118,-235,-615,733,23717,13871,6029,263,131,175,3469,2856,6513,5848,5255,1258,214,179,133,7524,13349,5999,771,12578,22636,13033,2817,19819,171,2753,2615,2359,394,8327,4181,928,7399,659
33,Port Clinton1,41.539096,-82.861798,invaded,MIXED_WOOD_PLAINS,Erockies,Ohio,2838,60,1.809999943,9593,3001,2670,331,2936,2721,2959,2713,9704,1088,516,216,3047,1703,2918,1760,366,-175,-878,1245,40669,27666,16917,300,109,245,7236,2892,6317,5979,5747,570,285,237,192,13879,18073,9570,3054,15019,23537,14930,5501,18036,115,5953,5189,4082,1871,12230,6188,1832,10398,174
34,MillikenMills1,43.837838,-79.305063,invaded,MIXED_WOOD_PLAINS,Erockies,Ontario,2809,71,2.130000114,9168,2977,2645,332,2925,2696,2925,2693,8905,860,583,130,2488,1819,2488,1900,583,12,-636,1220,32281,20440,11137,288,129,213,5673,2874,6207,5890,5515,692,262,213,160,12092,14517,7064,1745,12772,22662,13901,4614,18048,146,3484,2915,2362,1122,10344,5170,1626,8718,192
35,Birchmount1,43.826133,-79.318092,invaded,MIXED_WOOD_PLAINS,Erockies,Ontario,2810,71,2.140000105,9139,2978,2645,333,2925,2697,2925,2694,8839,856,579,130,2474,1806,2474,1884,578,8,-639,1217,32357,20500,11193,288,129,215,5682,2873,6198,5888,5520,678,262,212,160,12178,14483,7049,1732,12751,22660,13923,4642,18018,145,3380,2828,2293,1087,10371,5184,1635,8736,188
37,ClevelandNF1,32.867867,-116.46128,invaded,MARINE_WEST_COAST_FOREST,Wrockies,California,2854,131,4.460000038,5918,3028,2734,294,2792,2907,2933,2784,4991,1004,32,813,2703,209,370,2590,329,-800,-1881,2210,44731,26503,13895,309,110,231,4959,2819,4816,4265,3624,1192,365,346,200,8203,19692,12063,4872,14820,30709,21453,11545,19164,0,3010,2518,2028,982,15435,8953,4756,10679,1729
38,GinBeach1,41.07747,-71.93631,invaded,SOUTHEASTERN_PLAINS_FORESTS,Erockies,New_York,2842,34,1.470000029,7105,2958,2724,234,2808,2898,2935,2753,12123,1235,868,107,3329,2773,2861,3021,524,2,-822,1346,40492,24899,13568,317,124,365,12123,2842,6535,6045,5723,812,365,260,194,15000,16679,9819,4605,12073,23123,15119,6098,17025,0,7118,5853,4596,2522,8812,5550,2886,5926,-6
39,Comox1,49.739722,-124.924412,invaded,MARINE_WEST_COAST_FOREST,Wrockies,British_Columbia,2839,56,2.730000019,5146,2962,2756,206,2784,2908,2908,2778,15408,2522,370,606,7284,1349,1349,6346,2185,501,-1110,3296,39358,21437,9840,295,112,365,15408,2839,6933,6256,5662,1271,365,294,184,14732,14603,7364,2303,12299,21858,11799,2397,19461,0,4620,3973,3370,1250,9227,5286,2584,6643,16
40,ClarkIsland1,48.68,-122.795,invaded,MARINE_WEST_COAST_FOREST,Wrockies,Washington,2830,24,2.130000114,3181,2891,2778,113,2796,2869,2873,2791,9757,1586,257,493,4154,1065,1085,3409,1317,164,-1015,2332,35997,17747,4995,297,127,365,9757,2830,6593,6277,6060,533,365,365,171,13930,12627,6214,2255,10372,22709,11664,1927,20782,0,3504,2775,2109,1395,6464,4639,3184,3280,-59
41,Oshkosh1,44.1,-88.63,invaded,MIXED_WOOD_PLAINS,Erockies,Wisconsin,2811,77,2.019999981,10394,2999,2619,380,2942,2673,2942,2673,7868,1133,275,418,3000,903,3000,903,186,-199,-725,911,34761,23040,13435,287,118,222,6239,2883,6398,5930,5537,861,255,214,170,11869,16420,8344,2155,14265,22398,14231,5641,16757,133,4906,4485,3686,1220,11265,5491,1306,9959,239
42,SuciaIsland1,48.750956,-122.89384,invaded,MARINE_WEST_COAST_FOREST,Wrockies,Washington,2830,27,2.200000048,3411,2898,2775,123,2794,2873,2876,2789,7967,1238,222,478,3360,898,927,2812,727,-219,-1251,1978,36154,17904,5427,296,125,365,7967,2831,6142,5933,5785,357,365,365,172,11983,14644,8597,4479,10165,24116,13248,3066,21050,0,6064,4839,3662,2402,7141,5096,3541,3600,-9
43,FinelyNWR1,44.396573,-123.321829,invaded,MARINE_WEST_COAST_FOREST,Wrockies,Oregon,2847,109,4.139999866,5070,3009,2746,263,2789,2915,2915,2785,15487,2857,128,703,7718,695,695,7093,2488,440,-1511,3999,42084,23966,11035,301,105,327,15487,2840,7268,6326,5491,1777,365,330,197,15446,16371,8063,2073,14298,25537,14110,4061,21476,0,3109,2828,2556,554,9965,5528,2326,7639,95
44,FrazierMt1,34.774768,-118.969192,invaded,MARINE_WEST_COAST_FOREST,Wrockies,California,2794,131,4.409999847,6218,2969,2671,298,2729,2877,2877,2722,4484,975,25,889,2589,87,87,2420,349,-792,-1893,2242,23666,12476,4764,272,149,112,889,2836,4697,4296,3998,699,275,184,124,7484,19179,11562,5291,13888,31223,22290,12174,19049,165,5241,4602,3598,1642,10805,5994,3123,7682,2202
45,RockyPrairie1,46.91135,-122.85905,invaded,MARINE_WEST_COAST_FOREST,Wrockies,Washington,2840,82,3.579999924,4712,2980,2751,229,2788,2903,2903,2783,13931,2301,188,613,6461,930,930,5672,2033,446,-1199,3232,39831,21728,9326,297,109,360,13931,2840,6870,6342,5803,1067,365,329,189,14821,13824,6746,1457,12367,22599,12681,3346,19253,0,2854,2495,2191,663,8584,5117,2619,5965,88
46,Van01,42.640529,-84.503669,invaded,MIXED_WOOD_PLAINS,Erockies,Michigan,2825,90,2.50999999,9319,3005,2647,358,2922,2701,2943,2701,8960,1029,489,230,2807,1528,2601,1528,402,-73,-755,1157,36807,24203,13999,290,112,236,6526,2882,6259,5811,5421,838,276,228,179,13092,15653,7956,2050,13603,22714,14155,4932,17782,123,3713,3338,2612,1101,11577,5899,1689,9888,269
47,Kingsville1,42.025824,-82.73703,invaded,MIXED_WOOD_PLAINS,Erockies,Ontario,2831,44,1.360000014,10137,2995,2669,326,2951,2705,2959,2704,9857,997,627,144,2813,1948,2727,2055,551,-47,-778,1329,39375,26965,16706,298,116,232,6864,2895,6430,6034,5796,634,271,227,183,14019,16773,8384,2194,14578,23680,15035,5397,18283,129,4330,3713,3029,1301,12384,6021,1643,10741,184
48,Mississauga1,43.552569,-79.780876,invaded,MIXED_WOOD_PLAINS,Erockies,Ontario,2815,77,2.25999999,9163,2990,2650,340,2926,2703,2932,2698,9527,927,649,120,2693,1988,2685,2051,526,-31,-696,1222,33827,21726,12136,289,123,219,6095,2877,6117,5839,5490,627,267,217,167,12610,15727,7993,2436,13291,22480,13874,4703,17777,141,4577,3868,3123,1454,10926,5442,1724,9202,191
50,Uppsala4,59.8551622,17.6519153,native,NORTHEASTERN_EUROPEAN_MIXED_FORESTS,europe,Sweden,2793,67,2.410000086,7268,2947,2669,278,2891,2738,2891,2704,6209,797,304,298,2174,986,2174,1211,428,2,-557,985,25298,14165,6037,266,133,208,4265,2846,7034,6353,5595,1439,256,191,134,9838,11410,4957,1108,10302,19549,9390,679,18870,146,3369,2944,2544,825,8173,4064,1580,6593,20
51,Uppsala3,59.8485675,17.700063,native,NORTHEASTERN_EUROPEAN_MIXED_FORESTS,europe,Sweden,2793,67,2.420000076,7268,2947,2669,278,2891,2738,2891,2704,6151,787,303,297,2147,976,2147,1207,381,-55,-614,994,25298,14165,6037,266,133,208,4219,2846,7014,6336,5584,1430,256,191,134,9763,12082,5476,1466,10616,19626,9443,689,18937,146,4304,3763,3253,1051,8184,4078,1587,6597,14
52,PraderaDelAmor1,40.888296,-3.583885,native,MEDITERRANEAN,mediterranean,Spain,2849,104,3.599999905,6634,3010,2720,290,2808,2936,2940,2770,6631,880,166,419,2511,753,765,2022,516,-426,-1741,2257,42913,25684,13841,300,113,311,6631,2835,6389,5607,4697,1692,365,285,188,10375,19017,9629,2992,16025,27023,16210,5756,21267,0,3799,3397,3134,665,14220,6953,2843,11377,957
53,SpezialeArg08,-41.612146,-71.116076,invaded,SA,SA,Argentina,2771,99,4.239999771,4638,2905,2672,233,2721,2833,2833,2714,15801,3034,415,627,7705,1529,1529,6989,2677,458,-1044,3720,16025,5848,377,56,363,121,3988,2804,6596,5945,5377,1219,261,153,59,9015,15457,8117,2779,12678,28205,15698,4263,23942,234,11342,10098,9524,1818,5981,3572,1850,4131,1453
54,PuestoBlanco,-41.058102,-70.514649,invaded,SA,SA,Argentina,2813,111,4.230000019,5320,2964,2701,263,2752,2883,2883,2746,6389,1329,164,669,3207,535,535,2839,1002,-443,-1680,2683,29529,14946,5601,90,309,270,5462,2804,6667,5676,4899,1768,365,230,147,10068,18322,9571,2958,15364,30272,17683,5970,24302,0,5911,5027,4407,1504,9177,5197,2262,6915,1034
55,Duluth,46.976943,-92.196293,invaded,MIXED_WOOD_PLAINS,Erockies,Minnesota,2775,77,1.950000048,10885,2971,2576,395,2910,2630,2910,2630,7697,1091,203,501,3118,725,3118,725,273,-40,-384,657,26785,16595,8516,275,136,189,5740,2867,6679,6084,5518,1161,224,183,140,9318,14344,6608,1053,13291,21621,13484,4286,17335,171,3662,3286,2869,793,8961,4263,837,8124,422
56,StevensPoint,44.526111,-89.571111,invaded,MIXED_WOOD_PLAINS,Erockies,Wisconsin,2803,93,2.329999924,10482,2999,2601,398,2933,2662,2933,2662,8369,1111,257,431,3140,886,3140,886,279,-52,-522,801,33006,21541,12158,282,117,216,6293,2879,6353,5864,5397,956,249,209,166,11580,15011,7296,1395,13616,22333,14082,5284,17049,143,3261,2913,2421,840,10814,5301,1209,9605,332
61,Pyle 022-1,49.45603169,-114.409728,invaded,WESTERN_CORDILLERA,Wrockies,Alberta,2767,102,2.950000048,8366,2958,2614,344,2807,2662,2877,2662,8463,1186,555,263,2848,1750,2406,1750,508,-34,-924,1432,20787,11189,4330,260,152,158,3902,2847,6792,5940,5316,1476,220,165,109,8718,15470,7206,1167,14303,25195,14992,4284,20911,204,3600,3288,2867,734,8556,3982,1099,7457,1495
62,Pyle 021-1,49.582467,-114.2063567,invaded,WESTERN_CORDILLERA,Wrockies,Alberta,2777,109,3.140000105,8314,2969,2623,346,2862,2672,2886,2672,5750,955,312,391,2224,952,1901,952,162,-253,-1066,1228,23117,12883,5367,264,143,184,3497,2849,6363,5779,5335,1028,232,177,122,9236,15433,7195,1599,13833,24418,13909,3438,20980,177,5232,4591,3781,1451,9014,4353,1374,7640,1243
63,Pyle 026-1,50.897413,-111.9489833,invaded,GREAT_PLAINS,Erockies,Alberta,2785,117,2.980000019,10145,2993,2600,393,2891,2650,2911,2650,3212,594,105,569,1453,342,1405,342,-33,-501,-1176,1143,27938,17318,8744,272,124,110,2460,2852,6191,5544,5121,1070,232,193,149,5574,15987,7597,1507,14480,24087,14042,3652,20435,147,4312,3912,3611,701,10529,5124,1257,9272,713
64,Milo,37.73861111,15.1125,native,MEDITERRANEAN,mediterranean,Italy,2866,65,2.859999895,5632,2987,2760,227,2815,2940,2940,2799,10687,1600,209,554,4583,812,812,3808,1199,-87,-1504,2703,49118,30868,16152,327,101,359,10687,2865,6626,5992,5176,1450,365,365,227,14862,17104,9618,3506,13598,26312,17248,7746,18566,0,1708,1505,1306,403,12491,6797,3284,9207,805
65,"Milo, via Mareneve",37.75194444,15.09444444,native,MEDITERRANEAN,mediterranean,Italy,2849,69,2.960000038,5687,2974,2740,234,2798,2924,2924,2782,10912,1600,222,538,4618,867,867,3866,1202,-67,-1490,2692,43189,25174,12793,314,115,365,10912,2850,6508,5843,5042,1466,365,312,200,15078,17085,9601,3587,13498,26431,17351,7867,18564,0,1997,1762,1520,477,11668,6359,3082,8586,1201
66,S. Alfio,37.75666667,15.08638889,native,MEDITERRANEAN,mediterranean,Italy,2843,71,3,5705,2969,2732,237,2791,2918,2918,2775,11099,1615,230,532,4680,897,897,3929,1253,-19,-1432,2684,40848,23264,11579,310,119,365,11099,2843,6470,5804,5020,1450,365,288,192,15089,16580,9272,3306,13273,26446,17402,7951,18495,0,1700,1498,1287,413,11306,6167,3002,8304,1201
67,Mount Etna,37.77472222,15.08805556,native,MEDITERRANEAN,mediterranean,Italy,2831,71,3.00999999,5703,2956,2719,237,2778,2905,2905,2762,10989,1590,229,528,4604,900,900,3871,1169,-71,-1489,2658,36285,19898,9280,302,127,365,10989,2831,6326,5713,4994,1332,365,258,176,14019,17137,9692,3867,13269,26561,17534,8084,18477,0,3021,2667,2290,731,10479,5782,2877,7602,1315
68,Piano Battaglia,37.87416667,14.02833333,native,MEDITERRANEAN,mediterranean,Italy,2819,65,2.869999886,5639,2940,2712,228,2769,2893,2893,2753,9090,1405,134,511,3714,732,732,3426,864,-309,-1670,2535,32209,17005,7318,295,136,365,9090,2820,5899,5241,4447,1452,365,231,160,12960,18007,10456,4964,13043,27703,18082,7984,19719,0,6640,5499,4260,2380,10845,5947,3020,7825,1644
69,Capestrano,42.28138889,13.83666667,native,MEDITERRANEAN,mediterranean,Italy,2830,101,3.579999924,6560,2975,2693,282,2797,2916,2916,2747,9845,1319,483,295,3476,1693,1693,2877,928,-78,-1201,2128,36145,21167,10565,297,118,365,9845,2831,6507,6015,5428,1079,365,248,180,13930,16786,8788,3065,13721,24161,14727,5187,18974,0,4692,4278,3913,780,10311,5466,2395,7916,943
70,Kalambaka,39.70916667,21.61694444,native,MEDITERRANEAN,mediterranean,Greece,2881,102,3.269999981,7596,3045,2732,313,2836,2981,2981,2785,5745,821,173,451,2283,572,572,1991,425,-587,-1738,2163,54718,36560,22796,319,82,274,5745,2852,6374,5685,4947,1427,365,327,238,9230,19101,10506,3662,15439,25487,16215,6555,18932,0,4123,3758,3440,683,16945,8532,3201,13744,269
71,Meteora monasteries,39.75027778,21.66083333,native,MEDITERRANEAN,mediterranean,Greece,2852,104,3.420000076,7236,3012,2709,303,2811,2947,2947,2761,7083,1003,218,436,2770,729,729,2414,632,-411,-1600,2233,43976,27510,15734,305,103,308,7083,2836,6388,5647,4813,1575,365,271,203,10934,18208,9823,3338,14870,25701,16249,6414,19287,0,3660,3340,3054,606,14217,7118,2727,11490,626
72,Monument,39.70472222,21.61166667,native,MEDITERRANEAN,mediterranean,Greece,2886,103,3.25,7655,3052,2737,315,2841,2987,2987,2790,5903,842,178,451,2350,587,587,2045,496,-513,-1650,2146,56726,38476,24237,322,77,275,5903,2857,6394,5701,4963,1431,365,365,246,9439,18266,9893,3154,15111,25419,15898,6160,19259,0,2839,2588,2369,470,17563,8831,3287,14276,269
73,Mourgkani,39.7375,21.54694444,native,MEDITERRANEAN,mediterranean,Greece,2884,102,3.230000019,7645,3049,2734,315,2839,2985,2985,2787,6198,886,197,440,2460,653,653,2128,567,-442,-1554,2121,55904,37706,23686,321,79,283,6198,2858,6378,5704,4998,1380,365,335,243,9823,17492,9420,2843,14649,25378,15890,6196,19182,0,2086,1893,1736,349,17134,8674,3226,13908,290
75,Sogndal1,61.1659739,6.906057,native,EUROPEAN_MOUNTAIN_MIXED_FORESTS,europe,Norway,2803,55,1.99000001,7554,2939,2664,275,2718,2843,2907,2715,10237,1245,424,316,3417,1433,1945,3268,956,108,-953,1908,27858,16409,7999,272,133,184,4850,2864,6697,6140,5637,1060,262,197,140,11580,14464,7198,2048,12417,21231,10372,718,20513,176,4005,3589,3168,837,9208,4591,1738,7470,427
76,Truro1,45.36558,-63.26265,invaded,MIXED_WOOD_PLAINS,Erockies,Nova_Scotia,2797,85,2.430000067,8873,2971,2621,350,2713,2723,2908,2682,12183,1293,856,136,3653,2727,2738,3226,1055,357,-492,1547,28945,17445,8642,282,134,192,6534,2864,6306,6112,5896,410,256,204,149,11077,13166,6205,1266,11901,20680,12549,3993,16687,168,2744,2433,2004,740,8534,4432,1398,7136,32
77,Zemun1,44.84194444,20.40333333,native,EUROPEAN_MOUNTAIN_MIXED_FORESTS,europe,Serbia,2856,89,2.920000076,7991,3012,2706,306,2956,2767,2956,2749,6989,987,372,241,2243,1357,2243,1399,373,-209,-844,1217,45476,30056,18012,304,91,306,6577,2855,6496,5838,5464,1032,365,267,214,10819,14781,7685,1676,13104,21459,13458,4293,17166,0,2902,2588,2269,634,12817,6998,2353,10464,84
78,Mancillas01,32.368,-106.56,invaded,WESTERN_CORDILLERA,Wrockies,New_Mexico,2876,132,4,7574,3043,2713,330,2957,2837,2970,2777,3309,707,81,700,1724,325,1563,534,-23,-699,-1447,1424,52887,35430,21928,311,74,89,3309,2866,4964,4319,3529,1435,365,306,238,5726,16625,9660,2598,14027,28667,19397,9438,19229,0,2880,2177,1711,1170,18917,10415,4217,14700,2010
80,PI 203453,38.86187,33.426305,native,BLACK_SEA_FORESTS_AND_STEPPE,mediterranean,Turkey,2865,72,2.50999999,7902,3014,2727,287,2785,2964,2966,2766,4038,581,49,473,1516,288,447,1383,298,-684,-1933,2231,49081,32225,19838,313,97,256,4038,2829,6161,5351,4654,1507,365,281,217,6832,20210,10065,2538,17672,27745,17831,7108,20637,0,3610,3166,2855,755,16559,8440,2929,13630,922
81,PI 204412,39.687362,32.914832,native,BLACK_SEA_FORESTS_AND_STEPPE,mediterranean,Turkey,2838,112,3.339999914,8187,3011,2676,335,2826,2940,2943,2733,5606,729,167,371,1941,620,874,1577,315,-519,-1702,2017,39166,25327,14529,297,109,206,4231,2852,6152,5287,4619,1533,319,243,189,9044,19068,9686,2610,16457,26821,16751,6214,20607,74,3925,3518,3178,747,14696,7254,2270,12426,1346
83,PI 204416,39.491482,33.572392,native,BLACK_SEA_FORESTS_AND_STEPPE,mediterranean,Turkey,2857,118,3.49000001,8400,3032,2694,338,2848,2960,2966,2750,4994,701,98,462,1777,411,584,1545,351,-584,-1769,2120,45981,30523,18815,304,96,250,4994,2816,6161,5188,4440,1721,365,263,209,8207,19043,9845,2665,16379,27181,17491,7010,20171,0,3208,2722,2449,759,17113,8477,2614,14499,993
84,PI 206417,40.244002,42.280745,native,BLACK_SEA_FORESTS_AND_STEPPE,middleE,Turkey,2793,117,3.059999943,8921,2973,2592,381,2835,2673,2901,2673,4886,747,231,385,1917,795,1273,795,61,-423,-1116,1177,28141,16872,7966,282,132,168,3213,2854,6508,5857,5265,1243,249,203,151,8056,15386,8170,2175,13212,24668,16966,7745,16923,147,2366,2099,1842,524,9497,4797,1249,8248,1870
85,PI 211003,37.10115,70.55541,native,ARID_ASIA,middleE,Afghanistan,2854,122,3.309999943,8899,3018,2651,367,2856,2955,2961,2732,3267,664,29,736,1653,111,205,995,-81,-641,-1464,1384,45279,30998,19128,305,92,124,2155,2849,5412,5130,4824,588,316,260,214,5660,15143,9018,3253,11891,26086,18738,9661,16425,75,1078,899,804,275,15157,8101,2680,12477,1247
86,PI 219992,31.794902,64.584156,native,ARID_ASIA,middleE,Afghanistan,2947,141,3.529999971,9664,3144,2746,398,2841,3002,3070,2820,1901,560,0,1226,1394,10,25,1097,-135,-1259,-2317,2183,78962,60712,43602,345,47,73,1850,2838,5331,3974,3013,2318,365,365,299,3437,23280,14113,5200,18081,29515,21314,11793,17722,0,3448,2821,2245,1203,38818,19232,4854,33964,832
87,PI 219993,31.501234,64.35863,native,ARID_ASIA,middleE,Afghanistan,2952,145,3.650000095,9481,3149,2752,397,2850,3051,3072,2827,1461,406,0,1219,1073,7,20,875,-231,-1248,-2180,1949,80808,62558,45027,348,41,53,1420,2842,5344,4006,3075,2269,365,365,308,2678,21853,13642,5204,16648,29406,21627,12360,17046,0,2973,2464,1908,1065,39072,19541,5065,34007,759
88,PI 219996,31.397403,65.925389,native,ARID_ASIA,middleE,Afghanistan,2936,145,3.700000048,9350,3128,2737,391,2832,2991,3054,2813,2380,619,1,1099,1585,31,55,1301,-53,-1128,-2114,2061,74728,56478,39880,341,53,92,2277,2831,5568,4215,3162,2406,365,365,289,4239,21438,13181,4850,16588,29556,21579,12334,17222,0,2828,2301,1742,1086,33272,17097,4390,28882,1031
89,PI 220000,32.164835,63.429217,native,ARID_ASIA,middleE,Afghanistan,2950,142,3.599999905,9374,3146,2752,394,2847,3051,3069,2827,1751,524,1,1234,1290,7,14,994,-233,-1362,-2395,2162,79806,61556,44043,349,42,68,1705,2844,5135,3925,3057,2078,365,365,308,3180,23996,15024,6206,17790,29473,21379,11882,17591,0,3760,3371,2907,853,38801,19340,5269,33532,823
90,PI 220006,32.321767,65.117189,native,ARID_ASIA,middleE,Afghanistan,2935,130,3.349999905,9692,3127,2738,389,2825,2996,3058,2807,2585,742,1,1169,1814,22,47,1410,-134,-1430,-2727,2593,74377,56127,39986,341,57,112,2487,2829,5177,4143,3215,1962,365,365,285,4574,27515,16371,6420,21095,29568,21241,11661,17907,0,5366,4497,3601,1765,35124,17292,4559,30565,1004
91,PI 220007,31.850019,65.885393,native,ARID_ASIA,middleE,Afghanistan,2929,138,3.559999943,9404,3119,2733,386,2823,2987,3049,2806,2505,715,1,1141,1717,26,63,1328,-25,-1059,-2017,1992,72270,54020,38010,338,58,104,2392,2825,5231,4124,3225,2006,365,365,281,4444,20530,12592,4714,15816,29586,21328,11848,17738,0,2740,2330,1944,795,32941,16594,4456,28485,1132
92,PI 220010,31.940315,66.651757,native,ARID_ASIA,middleE,Afghanistan,2911,129,3.359999895,9477,3096,2712,384,2802,2973,3031,2786,3103,812,2,1103,2090,64,94,1698,65,-1109,-2180,2246,65766,47874,33360,330,68,147,2947,2822,5520,4281,3239,2281,365,322,263,5403,22112,13576,5142,16970,29727,21508,12103,17624,0,3562,3086,2561,1001,28738,14659,3634,25104,1440
93,PI 220575,33.751681,69.148685,native,ARID_ASIA,middleE,Afghanistan,2806,119,2.880000114,10344,2997,2583,414,2733,2822,2933,2666,6614,1302,142,604,3083,516,1403,2085,507,-516,-1486,1993,33351,21719,12298,283,117,128,2373,2899,5380,4562,3918,1462,254,211,167,10353,18805,10551,3431,15374,28908,20454,11069,17839,151,3905,3239,2703,1203,14688,7204,1606,13082,2849
94,PI 220576,34.926441,68.351308,native,ARID_ASIA,middleE,Afghanistan,2782,109,3,8608,2949,2587,362,2718,2879,2883,2663,4178,699,85,602,1850,319,509,1386,65,-675,-1535,1600,25204,14146,5649,275,134,124,1488,2859,6023,5406,4823,1200,244,197,142,7039,16732,10155,4208,12524,28684,22226,13067,15617,162,5984,4707,3905,2079,9185,4870,1364,7821,2702
95,PI 220578,34.964353,68.650521,native,ARID_ASIA,middleE,Afghanistan,2807,109,3.089999914,8387,2973,2621,352,2744,2902,2906,2692,4594,859,84,665,2202,307,450,1672,200,-586,-1525,1726,31397,19151,9324,289,121,126,1556,2868,5945,5311,4627,1318,268,222,169,7642,16441,9579,3556,12885,28364,20150,10025,18339,142,4791,3802,3229,1562,11075,5855,1773,9302,2262
96,PI 220581,34.381668,62.191648,native,ARID_ASIA,middleE,Afghanistan,2895,138,3.819999933,8335,3079,2718,361,2801,3003,3003,2786,3464,875,0,1073,2236,7,7,1858,208,-1002,-2416,2623,59930,41908,27606,326,72,169,3426,2829,5519,4731,3959,1560,365,325,255,5965,24162,12802,4450,19711,29320,20597,10791,18529,0,5905,3702,2567,3338,23241,11660,3725,19516,1062
97,PI 220583,33.891078,68.659638,native,ARID_ASIA,middleE,Afghanistan,2818,141,3.210000038,10624,3013,2574,439,2742,2843,2943,2670,5084,1087,68,699,2541,367,702,1797,289,-606,-1539,1828,37252,24972,14647,294,111,105,1723,2893,5676,4819,3986,1690,263,228,184,8332,17519,10191,3419,14100,29250,21060,11467,17783,139,2412,2186,1888,523,15520,7598,1473,14047,2269
98,PI 221921,34.905863,68.257185,native,ARID_ASIA,middleE,Afghanistan,2760,109,2.940000057,8862,2931,2561,370,2755,2861,2865,2638,4641,757,94,592,2046,358,585,1488,199,-547,-1459,1658,20604,10635,3333,263,149,124,1110,2850,5993,5382,4797,1196,224,173,115,7709,16140,9266,3390,12750,29026,21569,11722,17304,185,6856,5400,4474,2381,8276,4291,1126,7150,2928
100,PI 227297,29.272638,52.664414,native,ARID_ASIA,middleE,Iran,2922,108,3.119999886,8620,3098,2750,348,2811,3031,3031,2811,4430,1169,2,1133,2933,24,24,2933,573,-805,-1772,2345,69581,51331,34936,343,61,197,4401,2863,5729,4636,3684,2045,365,365,283,7406,17799,11630,4984,12815,28956,21619,12829,16127,0,2315,2008,1712,603,27701,14183,4126,23575,1504
101,PI 227356,29.719026,52.590891,native,ARID_ASIA,middleE,Iran,2886,145,3.829999924,8529,3081,2703,378,2777,2996,2996,2777,5544,1396,2,1113,3641,19,19,3641,885,-657,-1789,2674,56528,39014,25434,321,84,211,5523,2836,5342,4141,3042,2300,365,309,238,8961,17942,11082,4159,13782,29203,21068,11705,17498,0,2650,2261,1894,756,25035,12484,3544,21491,1861
102,PI 228397,35.333805,47.232082,native,ARID_ASIA,middleE,Iran,2833,133,3.079999924,10331,3053,2621,432,2758,2958,2964,2697,5297,936,9,761,2517,54,79,1840,272,-643,-1931,2203,40452,27694,17119,299,111,134,2181,2863,6118,4875,3735,2383,278,233,189,8626,19564,10692,3356,16208,29099,19954,9695,19404,124,3462,3016,2391,1071,19371,8624,1680,17691,1942
103,PI 229485,35.689036,51.388361,native,ARID_ASIA,middleE,Iran,2893,110,2.710000038,10718,3085,2680,405,2817,3020,3028,2752,3908,714,26,744,1823,96,116,1630,291,-549,-1470,1761,59144,43460,30605,320,85,177,3325,2827,5183,4533,3738,1445,365,279,236,6639,15105,8641,2403,12702,27919,19630,9998,17921,0,1310,1099,899,411,28214,12968,3138,25076,1192
104,PI 245733,39.553285,33.123888,native,BLACK_SEA_FORESTS_AND_STEPPE,mediterranean,Turkey,2838,115,3.410000086,8259,3012,2675,337,2827,2940,2944,2732,5067,681,134,396,1758,532,735,1464,289,-580,-1758,2047,39246,25466,14673,297,108,193,3749,2849,6097,5232,4542,1555,317,243,190,8309,19257,9858,2741,16516,27147,17246,6717,20430,74,4018,3521,3191,826,14928,7367,2305,12623,1315
105,PI 251216,34.228869,70.193233,native,ARID_ASIA,middleE,Afghanistan,2904,98,3.029999971,8086,3052,2728,324,2850,2860,3002,2795,7009,1175,230,467,2912,849,1643,1670,176,-526,-1484,1660,63151,44925,29910,335,68,250,7009,2882,5644,4971,4342,1302,365,347,268,10844,18330,10966,4436,13894,28017,19877,11481,16536,0,2093,1757,1564,529,20183,11063,4409,15774,1300
107,PI 317421,34.439337,63.114106,native,ARID_ASIA,middleE,Afghanistan,2834,125,3.339999914,8619,3007,2631,376,2724,2923,2935,2712,5090,1197,2,947,2924,26,36,2351,355,-773,-2127,2482,39593,25940,14401,302,98,129,1880,2867,6317,5224,4387,1930,294,253,205,8341,21316,11847,4357,16958,29276,21096,11786,17490,105,6453,4331,3315,3138,14153,7333,1778,12375,1804
108,PI 362116,43.557597,21.691519,native,EUROPEAN_MOUNTAIN_MIXED_FORESTS,europe,Serbia,2855,101,3.049999952,8492,3022,2690,332,2908,2764,2962,2743,5776,592,370,139,1686,1191,1483,1270,259,-399,-1186,1445,45369,30584,18722,301,90,236,5025,2858,6368,5792,5343,1025,350,262,212,9271,16313,8633,2335,13978,22068,14077,5096,16972,41,3555,3151,2921,634,13795,7182,2295,11500,170
109,PI 380765,33.665202,48.786339,native,ARID_ASIA,middleE,Iran,2793,125,3.00999999,10093,2999,2585,414,2717,2916,2921,2662,7499,1494,5,828,3620,31,54,3133,714,-653,-2452,3166,29637,18708,10109,282,134,99,1317,2869,5592,4600,3380,2212,242,195,149,10746,24610,12521,3866,20744,29411,20326,10463,18948,176,9114,8197,6957,2157,15663,6881,1480,14183,2300
110,PI 392358,41.2,69.9,native,ARID_ASIA,middleE,Uzbekistan,2791,112,3.160000086,8944,2969,2614,355,2736,2892,2906,2674,12096,1844,113,593,5166,587,782,4130,1237,236,-1330,2567,27548,16547,8010,270,126,151,2911,2865,5493,5055,4656,837,244,196,145,10583,15545,7398,1563,13981,26218,15864,5443,20775,183,1668,1543,1464,204,11384,5553,1787,9597,1974
111,PI 483443,41.878003,-93.097702,invaded,GREAT_PLAINS,Erockies,Iowa,2826,97,2.519999981,10432,3015,2628,387,2934,2683,2954,2683,9471,1375,229,489,3798,839,3737,839,139,-167,-615,754,38947,26479,16030,293,106,238,8092,2891,6347,5877,5492,855,269,230,188,13576,17871,9356,2502,15370,22986,15069,6383,16603,119,5203,4580,3619,1585,11730,6077,1463,10267,295
112,AAFC2,49.94,-119.51,invaded,NORTHAMERICAN_DESERTS,Wrockies,British_Columbia,2822,87,2.769999981,7738,2990,2675,315,2734,2772,2920,2722,4347,487,262,214,1366,859,880,1232,301,-449,-1296,1597,33998,20906,10954,290,120,198,2876,2851,6767,5794,5083,1684,296,230,171,7286,15736,7980,1704,14032,24719,15277,4769,19950,108,2731,2628,2497,234,11614,5765,1819,9795,463
113,AAFC4,50.08,-120.65,invaded,NORTHAMERICAN_DESERTS,Wrockies,British_Columbia,2775,104,3.150000095,7391,2956,2627,329,2719,2733,2872,2683,3262,397,163,273,1042,544,861,860,224,-482,-1281,1505,21145,11026,3888,261,150,135,1712,2834,6588,5796,5254,1334,237,171,112,5652,15325,7431,1555,13771,24146,14073,3419,20727,172,4364,4022,3629,736,8196,4160,1341,6855,1148
114,AAFC5,50.09,-120.45,invaded,NORTHAMERICAN_DESERTS,Wrockies,British_Columbia,2775,103,3.150000095,7390,2954,2627,327,2849,2732,2871,2682,3629,475,195,271,1198,592,1071,868,189,-445,-1187,1376,20995,10904,3777,260,150,145,2037,2836,6425,5755,5216,1209,235,171,111,6218,15033,7351,1748,13285,23893,13805,3353,20540,172,4822,4507,4133,689,8197,4167,1401,6796,1175
115,AAFC6,50.09,-120.75,invaded,NORTHAMERICAN_DESERTS,Wrockies,British_Columbia,2801,103,3.079999924,7633,2983,2647,336,2742,2759,2900,2704,2918,364,144,276,966,495,740,784,239,-440,-1239,1478,27931,16091,7478,274,130,138,1801,2827,6642,5836,5316,1326,270,202,145,5111,14547,6737,1076,13470,23220,12926,2430,20790,130,3278,2992,2666,612,9660,4918,1531,8129,862
116,AAFC8,49.57,-120.55,invaded,NORTHAMERICAN_DESERTS,Wrockies,British_Columbia,2800,102,3.269999981,6756,2976,2663,313,2722,2887,2890,2719,5741,758,311,322,2172,1007,1161,1941,632,-231,-1106,1738,26558,14583,6242,273,138,187,2942,2845,6866,5950,5420,1446,283,199,136,9225,14292,6935,994,13298,24233,14610,3996,20237,145,2034,1946,1813,221,8879,4657,1601,7278,921
117,AAFC9,49.62,-119.8,invaded,NORTHAMERICAN_DESERTS,Wrockies,British_Columbia,2801,93,2.940000057,7582,2978,2661,317,2713,2755,2900,2707,4139,463,237,210,1259,798,1061,1162,300,-406,-1232,1533,27850,16157,7568,277,133,172,2445,2847,6680,5803,5188,1492,267,200,145,6981,15256,7397,1361,13894,24389,14517,3956,20433,145,3048,2944,2785,263,9948,4984,1595,8353,853
118,AAFC10,49.71,-120.05,invaded,NORTHAMERICAN_DESERTS,Wrockies,British_Columbia,2790,98,3.069999933,7252,2971,2652,319,2862,2747,2886,2702,4636,565,253,238,1428,813,1340,1238,377,-316,-1052,1429,24493,13491,5642,269,142,176,2668,2848,6689,5880,5327,1362,256,185,128,7702,14393,6884,985,13408,24321,14632,3926,20395,162,2342,2203,2081,261,8867,4510,1513,7354,1161
119,Adler2,41.05,-112.25,invaded,NORTHAMERICAN_DESERTS,Wrockies,Utah,2844,55,1.600000024,10042,3025,2682,343,2832,2968,2974,2715,4599,589,151,311,1566,681,700,1134,167,-652,-1955,2122,42770,29678,18809,299,104,215,3112,2892,6092,5278,4555,1537,287,239,196,7649,21056,10229,2171,18885,28662,18120,6849,21813,109,4070,3427,2708,1362,18515,8104,1998,16517,1297
121,Adler5,40.79,-111.87,invaded,WESTERN_CORDILLERA,Wrockies,Utah,2828,117,3.049999952,9302,3039,2657,382,2817,2946,2952,2712,5691,678,205,290,1912,863,877,1428,233,-481,-1564,1798,37180,24417,14475,289,118,183,3577,2867,5813,5159,4321,1492,283,229,172,9158,17664,9386,2731,14933,28959,19370,8600,20359,121,1980,1841,1641,339,17035,7349,2118,14917,1574
122,Adler11,38.83,-112.05,invaded,NORTHAMERICAN_DESERTS,Wrockies,Utah,2823,144,3.589999914,9253,3037,2637,400,2894,2945,2945,2708,2569,309,160,204,748,544,544,551,-150,-855,-1665,1515,35562,23216,13698,288,122,96,1814,2825,6060,5212,4308,1752,276,216,167,4548,18317,10615,3579,14739,29042,20542,10820,18222,108,2682,2379,2143,539,16273,7092,1902,14371,1708
123,Adler13,41.44,-111.08,invaded,NORTHAMERICAN_DESERTS,Wrockies,Utah,2791,124,3.140000105,9703,3010,2616,394,2831,2670,2920,2670,2743,358,150,262,887,482,679,482,-79,-689,-1576,1497,28098,17579,9444,276,136,101,1755,2839,6280,5414,4449,1831,238,185,141,4830,17526,9104,2431,15096,28335,18814,8040,20295,154,3284,3103,2892,392,13716,5676,1401,12315,1948
124,Adler14,41.81,-111.25,invaded,NORTHAMERICAN_DESERTS,Wrockies,Utah,2774,113,2.980000019,9632,2985,2608,377,2811,2675,2903,2656,4449,546,270,192,1335,953,954,993,90,-566,-1632,1722,24068,14510,7192,269,147,143,2125,2865,6156,5295,4326,1830,216,169,123,7434,18941,9251,2464,16478,28000,18255,7546,20454,190,4616,4387,4086,530,12640,5187,1297,11343,2189
125,Adler16,41.78,-110.2,invaded,NORTHAMERICAN_DESERTS,Wrockies,Wyoming,2796,124,3.119999886,9812,3015,2619,396,2841,2671,2925,2671,2233,306,103,310,750,340,611,340,-123,-741,-1613,1490,29618,18638,10158,277,132,85,1637,2829,6037,5179,4277,1760,244,194,146,3995,17822,9218,2434,15388,28505,18663,7709,20796,143,4111,3766,3171,940,14574,6127,1508,13066,2015
126,Adler17,41.44,-110.11,invaded,NORTHAMERICAN_DESERTS,Wrockies,Wyoming,2791,135,3.309999943,9863,3013,2606,407,2837,2665,2921,2665,2252,295,109,269,734,376,584,376,-106,-710,-1555,1449,28537,17805,9551,275,134,80,1543,2827,5908,5087,4150,1758,240,189,142,4027,17195,8934,2408,14787,27776,18261,7832,19944,146,4463,4017,3346,1117,14486,6055,1506,12980,2036
127,Adler18,40.86,-114.22,invaded,NORTHAMERICAN_DESERTS,Wrockies,Nevada,2848,119,2.980000019,9675,3060,2660,400,2842,2724,2976,2724,1697,219,99,225,551,358,373,358,-153,-869,-1785,1632,43656,29942,18694,296,102,57,1339,2829,6037,4916,4003,2034,302,251,195,3088,18921,10071,2693,16227,29013,18940,7911,21102,75,3511,2933,2556,955,21011,8967,2221,18790,1443
128,Barnett1,43.48,-110.74,invaded,WESTERN_CORDILLERA,Wrockies,Wyoming,2773,116,3.329999924,8072,2972,2624,348,2680,2878,2881,2674,8149,929,471,212,2596,1512,1646,2421,736,-119,-1182,1918,21280,11508,4837,264,157,150,2813,2852,6588,5696,4837,1751,230,161,108,9166,16458,7769,1469,14989,27054,16383,5108,21946,211,3011,2787,2503,508,9872,4372,1268,8604,2023
129,Baughman2,43.05,-118.87,invaded,NORTHAMERICAN_DESERTS,Wrockies,Oregon,2831,116,3.230000019,8499,3040,2681,359,2863,2942,2944,2727,2738,393,80,396,942,281,429,758,62,-657,-1637,1699,37186,23903,13737,290,117,129,1929,2820,6087,5193,4215,1872,302,236,174,4822,17245,8748,2268,14977,28665,17335,5986,22679,92,3270,2917,2517,753,16776,7321,2225,14551,1307
130,Baughman3,42.81,-118.96,invaded,NORTHAMERICAN_DESERTS,Wrockies,Oregon,2822,117,3.220000029,8569,3032,2669,363,2809,2934,2936,2717,3435,485,100,399,1215,356,496,939,110,-632,-1652,1762,34598,21923,12321,287,123,140,2159,2834,6337,5236,4078,2259,284,223,165,5921,17496,9057,2548,14948,29131,18239,7075,22056,112,3359,3014,2582,777,16412,6994,1932,14480,1469
131,Baughman5,42.72,-120.08,invaded,NORTHAMERICAN_DESERTS,Wrockies,Oregon,2812,116,3.269999981,8357,3015,2659,356,2799,2921,2923,2710,3130,392,118,324,1036,415,501,835,42,-673,-1777,1819,31608,19486,10426,283,129,130,1910,2833,5868,5076,4060,1808,274,210,155,5446,19010,9211,2606,16403,28866,17547,6380,22486,127,4491,4038,3415,1076,15108,6607,2047,13061,1629
132,Blumenthal1,41.18,-104.9,invaded,GREAT_PLAINS,Erockies,Wyoming,2809,121,3.569999933,8046,3007,2667,340,2891,2712,2918,2712,3997,618,81,583,1786,300,1641,300,-282,-677,-1270,989,30121,18339,9593,278,130,126,3460,2834,5202,5079,4908,294,269,202,149,6771,18031,9985,3897,14134,26052,17885,8331,17721,118,6258,5076,3852,2407,12184,5985,2519,9665,1905
133,Blumenthal4,40.7,-106.24,invaded,WESTERN_CORDILLERA,Wrockies,Colorado,2756,132,3.599999905,8307,2961,2595,366,2839,2655,2867,2655,5165,565,291,212,1611,922,1517,922,73,-411,-1000,1074,18298,9593,3370,257,159,150,2519,2842,6226,5605,5085,1141,202,149,99,7931,15277,8275,2457,12820,27884,18673,8293,19591,207,4159,3834,3231,928,8450,3921,1218,7232,2485
135,Blumenthal7,41.54,-106.39,invaded,WESTERN_CORDILLERA,Wrockies,Wyoming,2765,111,3.140000105,8534,2969,2617,352,2798,2662,2881,2662,4848,658,242,254,1583,839,1271,839,121,-425,-1213,1334,20251,11284,4716,261,154,159,2267,2849,6046,5417,4710,1336,207,155,108,8003,16288,8143,1778,14510,27986,18491,7966,20020,201,3226,2733,2174,1052,10079,4437,1398,8681,2533
136,Blumenthal8,40.64,-104.56,invaded,GREAT_PLAINS,Erockies,Colorado,2831,139,3.710000038,8778,3041,2667,374,2921,2721,2947,2721,3557,588,70,605,1617,242,1478,242,-235,-703,-1308,1073,37364,24376,14190,288,112,88,3271,2850,5191,5048,4876,315,290,232,177,6108,17969,9886,3237,14732,26046,17762,8311,17735,86,4405,3653,3072,1333,14639,7091,2607,12032,1523
137,Blumenthal10,40.92,-102.52,invaded,GREAT_PLAINS,Erockies,Colorado,2835,130,3.450000048,9216,3048,2672,376,2931,2719,2957,2719,4342,719,81,630,2020,276,1907,276,-219,-663,-1267,1049,39229,26189,15810,290,110,110,4012,2858,5458,5296,5159,299,290,235,181,7279,18837,10111,3103,15734,25709,17353,7967,17742,88,4624,4080,3613,1011,14540,7057,2487,12053,1100
138,Board1,38.84,-117.57,invaded,NORTHAMERICAN_DESERTS,Wrockies,Nevada,2809,111,3.059999943,9079,3009,2646,363,2791,2926,2929,2697,2089,264,117,208,674,446,494,474,-102,-695,-1414,1313,31522,20015,11171,284,131,86,1378,2830,5523,4678,3711,1812,261,201,154,3754,15798,8640,2488,13310,29529,20113,9298,20231,132,2261,1963,1649,612,16468,7165,2067,14401,2217
139,Bradford1,35.23,-111.62,invaded,WESTERN_CORDILLERA,Wrockies,Arizona,2823,119,3.700000048,7661,2998,2676,322,2914,2862,2923,2727,5702,854,113,423,2156,611,1678,1614,114,-593,-1639,1753,34124,21038,11224,288,120,188,3561,2853,5288,4770,3774,1514,304,226,169,9173,17410,10515,3871,13539,29622,21219,12441,17181,107,2194,1782,1292,902,13311,7017,2730,10581,2268
140,Chambers1,39.55,-119.58,invaded,NORTHAMERICAN_DESERTS,Wrockies,Nevada,2850,120,3.299999952,8582,3052,2688,364,2743,2960,2962,2743,2076,287,58,448,822,222,247,822,-113,-937,-1937,1824,43386,28690,17431,301,107,113,1622,2790,6134,4971,3897,2237,353,257,195,3732,19939,11041,3622,16317,29659,20229,9256,20403,30,4174,3410,2681,1493,19359,8720,2479,16880,1415
141,Chambers2,39.95,-118.76,invaded,NORTHAMERICAN_DESERTS,Wrockies,Nevada,2865,124,3.25999999,9057,3068,2688,380,2859,2978,2984,2750,1485,197,30,354,485,173,219,435,-143,-931,-1896,1753,48757,33411,21110,302,86,60,1252,2808,5784,4541,3451,2333,365,273,217,2720,19253,10513,2853,16399,30062,19850,8533,21529,0,3481,2730,2066,1415,23810,10462,2786,21024,1303
142,Chambers4,41.31,-117.63,invaded,NORTHAMERICAN_DESERTS,Wrockies,Nevada,2841,122,3.069999933,9546,3057,2660,397,2731,2962,2967,2719,2200,301,42,435,803,201,229,765,32,-809,-1846,1877,41506,28056,17195,295,108,104,1232,2824,6599,5022,3735,2864,295,245,188,3940,18979,9858,2510,16469,29638,19041,7653,21985,93,3059,2575,1994,1065,20887,8633,1813,19074,1343
143,Chambers5,41.54,-117.75,invaded,NORTHAMERICAN_DESERTS,Wrockies,Nevada,2827,121,3.059999943,9504,3044,2648,396,2718,2947,2952,2706,2867,381,59,423,994,257,320,933,117,-720,-1807,1924,37444,24691,14618,290,117,121,1646,2836,6263,4902,3545,2718,279,231,174,5029,18739,9502,2406,16333,29627,18964,7828,21799,118,2483,2174,1787,696,19729,8065,1816,17913,1441
144,Chambers6,41.54,-117.78,invaded,NORTHAMERICAN_DESERTS,Wrockies,Nevada,2838,122,3.069999933,9476,3055,2659,396,2730,2958,2963,2718,2649,349,54,421,917,238,296,861,93,-740,-1809,1902,40565,27256,16563,294,110,118,1584,2830,6260,4953,3711,2549,293,242,185,4678,18698,9521,2349,16349,29489,18726,7419,22070,99,2559,2228,1816,744,20497,8500,1975,18522,1346
145,Chambers7,43.94,-116.19,invaded,WESTERN_CORDILLERA,Wrockies,Idaho,2838,129,3.349999905,8841,3051,2666,385,2734,2951,2954,2727,5115,772,92,510,2082,379,483,1967,555,-428,-1590,2146,39954,26371,15582,294,109,164,2870,2853,6261,5396,4481,1780,304,245,186,8375,16913,8385,1777,15136,28451,17402,6175,22276,104,1525,1378,1155,369,16489,7399,2080,14409,952
146,Chambers8,42.24,-114.57,invaded,NORTHAMERICAN_DESERTS,Wrockies,Idaho,2826,116,3.019999981,9267,3047,2662,385,2862,2945,2949,2709,2905,411,115,360,1051,402,538,697,20,-717,-1708,1727,36513,23854,13990,288,119,119,2002,2832,6171,5194,4156,2015,279,227,170,5090,18210,9524,2767,15443,28256,18116,7188,21068,109,3902,3536,3018,884,17494,7335,1935,15559,1470
147,Chambers9,40.66,-116.73,invaded,NORTHAMERICAN_DESERTS,Wrockies,Nevada,2844,125,3.029999971,9937,3062,2650,412,2835,2969,2975,2717,2621,373,60,417,925,263,297,808,66,-708,-1785,1851,42676,29224,18337,296,107,111,1665,2835,6181,4868,3619,2562,294,245,190,4633,18447,9202,2029,16418,28997,17856,6341,22656,96,3035,2519,2052,983,22214,9103,1999,20215,1484
148,Copeland1,43.7,-117.33,invaded,NORTHAMERICAN_DESERTS,Wrockies,Oregon,2841,111,2.930000067,9275,3053,2674,379,2837,2957,2962,2722,2740,359,95,364,885,321,460,822,99,-745,-1822,1920,41320,27754,16742,294,105,125,1829,2834,6036,4899,3835,2201,299,248,190,4825,19276,9615,2226,17050,28162,16781,5400,22762,91,3938,3404,3078,860,19767,8539,2158,17609,1084
149,Copeland5,42.27,-118.71,invaded,NORTHAMERICAN_DESERTS,Wrockies,Oregon,2830,119,3.180000067,8954,3041,2666,375,2728,2945,2948,2718,2293,287,57,379,762,243,302,713,-33,-810,-1823,1790,37267,24261,14181,290,117,109,1373,2821,6008,4994,3946,2062,289,233,174,4095,18789,9940,3022,15767,29211,18542,7244,21967,103,4076,3642,3146,930,18017,7710,2144,15873,1380
150,Copeland9,43.47,-119.68,invaded,NORTHAMERICAN_DESERTS,Wrockies,Oregon,2817,121,3.380000114,8260,3025,2668,357,2723,2924,2927,2715,2999,386,116,341,1016,392,465,890,121,-632,-1600,1721,32852,20315,10960,284,126,130,1775,2828,6371,5281,4198,2173,282,219,159,5239,17278,8705,2285,14993,28696,17258,5927,22769,114,3789,3402,2972,816,15101,6581,1879,13222,1398
151,Copeland10,42.77,-118.74,invaded,NORTHAMERICAN_DESERTS,Wrockies,Oregon,2792,113,3.130000114,8616,3002,2640,362,2778,2905,2907,2686,5109,675,147,393,1752,521,733,1448,359,-402,-1531,1890,26715,15916,7919,275,142,141,2141,2858,5843,5060,3907,1936,247,185,134,8367,16744,8102,2069,14676,28872,17280,6072,22800,171,3104,2853,2499,605,14070,5912,1737,12333,1891
152,Davies03,42.68,-118.68,invaded,NORTHAMERICAN_DESERTS,Wrockies,Oregon,2771,112,3.069999933,8713,2980,2616,364,2757,2884,2886,2663,5556,688,153,391,1871,563,762,1617,393,-415,-1639,2032,21879,12341,5442,265,156,127,1545,2857,5887,5156,3964,1923,221,164,110,8977,17895,8599,2368,15527,29280,18016,6906,22374,202,4892,4456,3967,925,12283,5048,1478,10805,2081
153,Downs1,46.38145,-119.430272,invaded,NORTHAMERICAN_DESERTS,Wrockies,Washington,2867,121,3.190000057,9195,3076,2697,379,2754,2976,2985,2748,1982,297,40,478,824,167,246,741,91,-814,-1899,1991,49553,34398,22109,300,80,130,1543,2806,6352,5186,4219,2133,349,270,221,3574,19419,9740,1945,17474,27851,16198,4540,23311,35,3637,3106,2683,955,20702,9430,2299,18403,142
154,Downs2,46.25045,-119.53334,invaded,NORTHAMERICAN_DESERTS,Wrockies,Washington,2851,120,3.359999895,8522,3053,2696,357,2749,2955,2962,2744,2152,326,45,474,889,185,265,814,101,-830,-2020,2121,43778,29091,17587,294,94,139,1496,2803,6223,5050,4146,2077,346,258,201,3860,20641,10033,2103,18537,27222,15103,3488,23734,41,5040,4224,3549,1491,18365,8510,2326,16039,402
155,Downs3,45.9663,-120.3671,invaded,NORTHAMERICAN_DESERTS,Wrockies,Washington,2819,101,3.170000076,7379,3005,2687,318,2734,2914,2916,2728,4724,821,91,552,2127,401,483,1962,548,-557,-1851,2399,32466,19383,9879,283,124,168,2266,2842,6308,5380,4454,1854,308,225,160,7827,19402,9373,2211,17191,28356,16436,4966,23390,116,4508,3929,3389,1119,13127,6222,2035,11092,960
156,Downs4,46.73598,-120.82735,invaded,NORTHAMERICAN_DESERTS,Wrockies,Washington,2814,111,3.210000038,7890,3011,2665,346,2720,2913,2917,2716,4248,749,104,569,1990,401,459,1785,498,-564,-1737,2235,31856,19334,9934,282,124,146,1853,2847,6263,5514,4806,1457,283,220,159,7141,18524,9070,2152,16372,27405,16334,5299,22106,134,4331,3493,2671,1660,12183,5878,1847,10336,634
157,Eshleman1,42.9,-107.71,invaded,NORTHAMERICAN_DESERTS,Wrockies,Wyoming,2808,126,3.140000105,9749,3031,2630,401,2852,2697,2939,2686,2325,450,67,541,1010,256,620,257,-175,-747,-1619,1444,32323,20804,11942,279,127,82,1910,2823,5602,5040,4333,1269,256,203,153,4148,17980,9346,2512,15467,28309,18384,7533,20776,123,3971,3730,3289,682,15665,6676,1873,13792,1781
158,Fleishman1,38.47,-119.49,invaded,NORTHAMERICAN_DESERTS,Wrockies,California,2802,134,3.930000067,7463,2996,2655,341,2712,2900,2901,2712,4132,671,125,581,1833,378,419,1833,274,-683,-1732,2006,27489,15980,7674,281,142,120,1376,2847,5589,5155,4602,987,273,192,140,6971,18563,10166,3299,15265,29761,20255,9065,20696,156,3018,2854,2686,332,11564,5691,2277,9287,2039
159,Fleishman3,38.58,-118.83,invaded,NORTHAMERICAN_DESERTS,Wrockies,Nevada,2791,115,3.130000114,8913,2987,2619,368,2774,2904,2907,2679,2364,267,103,254,753,361,442,658,-10,-619,-1416,1406,26931,16263,8153,277,140,92,1162,2840,5076,4490,3660,1416,243,186,138,4212,15609,8098,2239,13370,29721,19471,8228,21493,159,2733,2376,2171,562,14427,6394,2041,12386,2564
160,Fleishman5,39.12,-117.27,invaded,NORTHAMERICAN_DESERTS,Wrockies,Nevada,2797,111,2.920000076,9620,3003,2623,380,2779,2920,2924,2678,2354,299,126,220,755,445,508,577,-26,-670,-1502,1476,29442,18669,10271,280,135,90,1329,2843,5432,4625,3590,1842,243,189,146,4196,16482,8619,2197,14286,29216,19218,8196,21020,154,2213,1893,1555,658,16359,6864,1856,14503,2409
161,Fleishman7,39.17,-117.44,invaded,NORTHAMERICAN_DESERTS,Wrockies,Nevada,2790,114,3.019999981,9453,2997,2619,378,2826,2912,2916,2674,2448,330,135,230,787,501,575,566,-64,-670,-1448,1384,27477,17083,9053,277,139,91,1355,2845,5394,4595,3549,1845,236,183,139,4350,16155,8692,2498,13658,29366,20157,9569,19797,159,1957,1733,1533,424,15663,6547,1839,13824,2568
162,Getts1,41.17,-120.5,invaded,WESTERN_CORDILLERA,Wrockies,California,2820,120,3.390000105,8246,3026,2673,353,2730,2928,2930,2721,3471,470,61,467,1292,274,347,1184,189,-661,-1799,1989,33337,20865,11609,288,128,136,1858,2836,6257,5296,4249,2008,288,213,161,5976,18597,9393,2595,16002,29084,18120,6634,22450,120,3328,3052,2714,614,15055,6654,2025,13030,1512
163,Getts3,40.43,-120.67,invaded,WESTERN_CORDILLERA,Wrockies,California,2838,121,3.380000114,8177,3045,2689,356,2748,2944,2946,2738,3869,618,39,650,1748,194,227,1732,324,-694,-1864,2187,38921,24869,14520,296,118,174,2248,2823,6563,5422,4400,2163,339,240,179,6580,19192,10015,2669,16524,29570,19121,7641,21929,68,2360,2106,1877,483,15993,7247,2151,13842,1375
164,Getts4,41.71,-120.28,invaded,WESTERN_CORDILLERA,Wrockies,California,2759,111,3.160000086,8352,2958,2607,351,2667,2868,2869,2657,7618,1175,115,520,3079,489,687,2774,890,-220,-1647,2538,18953,10058,3695,260,163,127,1060,2846,5924,5167,4045,1879,203,154,98,8141,17594,8299,2173,15421,29740,17989,6456,23284,234,4689,4331,3993,695,10612,4546,1434,9178,2232
165,Holdrege1,41.61,-111.57,invaded,WESTERN_CORDILLERA,Wrockies,Utah,2802,120,3.180000067,8915,3009,2633,376,2788,2916,2921,2692,3835,444,176,215,1170,691,692,972,116,-588,-1546,1662,29507,18191,9761,279,136,135,2143,2849,6191,5451,4682,1509,256,194,144,6529,17178,8976,2109,15068,28639,19222,8343,20296,149,1232,1153,1055,177,13109,5742,1631,11478,1806
166,Hufft1,38.6701,-108.3286,invaded,NORTHAMERICAN_DESERTS,Wrockies,Colorado,2830,139,3.569999933,8993,3037,2647,390,2895,2714,2947,2714,2978,391,142,343,1112,469,885,469,-127,-739,-1560,1432,37722,24718,14440,291,112,103,2401,2832,5845,5185,4336,1509,288,232,180,5206,17361,9800,2886,14475,28549,19303,9419,19130,96,3029,2526,2172,857,15093,7172,2126,12967,1887
167,Hufft2,39.547444,-105.102111,invaded,GREAT_PLAINS,Erockies,Colorado,2820,149,3.970000029,8522,3025,2650,375,2860,2714,2932,2714,4826,654,162,402,1737,597,1577,597,-32,-514,-1138,1106,34183,21712,12150,287,122,147,3874,2848,5447,5315,5133,314,279,219,166,7972,16519,9039,2499,14020,26347,18444,9241,17106,106,2364,2161,1875,489,12566,6225,2344,10222,1734
168,JackieOtt1,43.65,-102.97,invaded,GREAT_PLAINS,Erockies,South_Dakota,2825,128,3.299999952,9610,3044,2657,387,2923,2705,2952,2705,4183,819,84,647,1989,294,1542,294,-163,-584,-1335,1172,36788,24510,14658,287,114,127,3700,2850,5502,5304,5073,429,271,221,174,7046,17991,9232,2504,15487,25205,16590,7163,18042,114,4095,3651,3326,769,14471,6771,2264,12207,889
169,JackieOtt2,43.71,-102.32,invaded,GREAT_PLAINS,Erockies,South_Dakota,2825,123,3.099999905,10060,3048,2651,397,2927,2698,2957,2698,4466,787,99,606,2061,328,1699,328,-196,-649,-1460,1265,37211,25098,15285,287,114,135,3869,2858,5667,5399,5115,552,266,219,174,7458,19756,10111,2917,16839,25431,16313,6744,18687,117,5435,4944,4461,974,14754,6757,2042,12712,790
170,JackieOtt5,43.78,-102.61,invaded,GREAT_PLAINS,Erockies,South_Dakota,2819,127,3.210000038,9896,3042,2647,395,2920,2695,2949,2695,4379,823,97,615,2015,322,1586,322,-173,-610,-1440,1266,35491,23620,14069,284,117,130,3792,2855,5603,5333,5056,547,262,214,168,7332,19102,9657,2694,16408,25317,16183,6697,18620,121,5414,4848,4377,1037,14263,6566,2052,12211,886
171,JackieOtt6,43.84,-101.94,invaded,GREAT_PLAINS,Erockies,South_Dakota,2822,121,3.019999981,10176,3045,2646,399,2926,2693,2955,2693,4938,842,112,601,2312,384,1914,384,-172,-602,-1397,1225,36723,24749,15013,286,115,150,4217,2866,5738,5432,5107,631,263,217,172,8129,19957,10022,2805,17152,25324,16098,6667,18657,121,5541,5089,4574,966,14564,6650,1942,12622,783
172,JackieOtt7,43.82,-101.94,invaded,GREAT_PLAINS,Erockies,South_Dakota,2823,120,3.019999981,10171,3046,2647,399,2927,2694,2956,2694,4983,847,114,598,2325,390,1926,390,-166,-592,-1377,1211,36869,24873,15137,286,115,152,4267,2865,5738,5433,5108,630,263,217,172,8192,19810,9953,2767,17043,25345,16152,6726,18619,122,5398,4959,4456,942,14610,6676,1953,12657,778
173,Lavin1,44.68,-109.07,invaded,NORTHAMERICAN_DESERTS,Wrockies,Wyoming,2781,140,3.460000038,9470,3002,2599,403,2876,2661,2906,2661,2660,521,78,594,1238,261,916,261,-152,-640,-1450,1297,25581,15302,7588,268,140,91,2031,2828,5349,5133,4685,664,232,179,129,4696,17320,8548,2278,15042,26455,16693,6184,20271,157,4399,4066,3787,612,11732,5262,1601,10131,1729
174,Lavin2,45.67,-111.03,invaded,WESTERN_CORDILLERA,Wrockies,Montana,2790,128,3.420000076,8612,3000,2626,374,2828,2684,2905,2684,5350,871,229,461,2294,726,1659,726,57,-362,-1200,1257,26213,15550,7636,271,138,168,3547,2854,5990,5563,5095,895,244,183,134,8698,16159,7908,1845,14314,26899,16691,5863,21036,158,2809,2585,2263,546,10855,4988,1611,9244,1489
175,Lee1,36.82340833,-116.0163889,invaded,NORTHAMERICAN_DESERTS,Wrockies,Nevada,2908,128,3.569999933,8688,3095,2737,358,2798,2950,3021,2798,1319,211,29,433,522,171,246,522,-259,-1074,-1911,1652,64420,46170,30981,323,59,52,1290,2836,5004,4250,3618,1386,365,365,265,2429,19804,11806,4092,15712,30610,20783,10061,20549,0,3055,2638,2429,625,27490,13711,4710,22780,1052
176,Lee2,35.3984,-115.7845,invaded,NORTHAMERICAN_DESERTS,Wrockies,California,2894,125,3.730000019,7953,3072,2737,335,2796,2928,2998,2796,2332,290,40,419,782,237,618,782,-215,-1099,-2050,1835,59361,41111,26269,319,67,88,2292,2840,4510,3975,3399,1111,365,365,253,4159,21279,12880,4974,16305,31010,21124,10545,20465,0,4122,3513,3139,983,24366,12786,5039,19327,1249
177,Lee3,36.5247,-115.8987,invaded,NORTHAMERICAN_DESERTS,Wrockies,Nevada,2888,119,3.519999981,8308,3069,2731,338,2784,2927,2997,2784,2828,403,50,462,1006,291,773,1006,-110,-959,-1940,1829,57236,39257,25396,315,73,111,2778,2829,4735,4153,3563,1172,365,323,243,4967,20280,11865,4105,16175,30740,20531,9668,21072,0,3642,3127,2748,894,23650,12106,4540,19110,1279
178,Lee4,35.4564,-115.52,invaded,NORTHAMERICAN_DESERTS,Wrockies,California,2880,119,3.640000105,7932,3057,2730,327,2979,2915,2984,2782,2860,399,59,443,1038,287,852,904,-82,-973,-1996,1914,54373,36434,22918,313,80,116,2801,2828,4641,4041,3364,1277,365,320,234,5018,20646,12050,4117,16529,30837,20097,9123,21714,0,4609,3862,3396,1214,22227,11635,4563,17664,1497
179,Lee5,35.3153,-115.5544,invaded,NORTHAMERICAN_DESERTS,Wrockies,California,2879,114,3.559999943,7833,3051,2731,320,2977,2912,2981,2782,3008,429,57,453,1120,298,908,926,-153,-1019,-2010,1857,53854,35913,22448,313,81,121,2951,2830,4644,4095,3483,1161,365,320,233,5253,20930,12630,4885,16046,30993,20952,10372,20621,0,4566,3916,3573,993,21450,11358,4570,16880,1575
180,Leger1,39.49,-119.84,invaded,NORTHAMERICAN_DESERTS,Wrockies,Nevada,2841,127,3.539999962,8104,3046,2688,358,2743,2948,2948,2743,2985,493,57,627,1394,226,226,1394,134,-747,-1750,1883,40206,25675,15048,297,115,158,2291,2792,6082,5187,4317,1765,365,247,183,5217,18067,9860,2934,15133,29377,19371,8034,21343,0,2456,2179,1979,477,16453,7661,2517,13936,1466
181,Maron1,46.68,-114.03,invaded,WESTERN_CORDILLERA,Wrockies,Montana,2818,128,3.349999905,8560,3024,2642,382,2855,2735,2930,2710,3091,411,188,274,1064,631,834,687,41,-611,-1547,1588,33546,21060,11504,283,121,124,2146,2833,5959,5426,4804,1155,277,221,163,5385,17393,8587,2068,15325,26513,16041,5466,21047,115,2434,2261,2081,353,13484,6204,1918,11566,1036
182,Maron2,46.64,-113.23,invaded,WESTERN_CORDILLERA,Wrockies,Montana,2789,127,3.329999924,8746,2996,2613,383,2875,2679,2903,2679,3474,572,168,433,1419,531,1215,531,-3,-524,-1333,1330,26234,15533,7508,271,137,120,2401,2839,6336,5687,5071,1265,244,186,135,5981,16480,8035,1867,14613,26482,16222,5629,20853,152,2980,2777,2509,471,10800,4898,1378,9422,1346
183,Porensky1,43.24,-105.18,invaded,GREAT_PLAINS,Erockies,Wyoming,2818,125,3.24000001,9326,3045,2658,387,2858,2705,2945,2705,3302,625,77,575,1513,306,1074,306,-222,-712,-1533,1311,34210,22204,12993,281,123,108,2811,2832,5446,5158,4691,755,267,211,159,5715,18708,9794,3228,15480,26809,17351,7279,19530,116,5802,4917,4085,1717,15244,6738,2237,13007,1419
184,Porensky12,43.55,-105.1,invaded,GREAT_PLAINS,Erockies,Wyoming,2805,126,3.25,9337,3032,2644,388,2846,2691,2931,2691,4031,744,85,571,1821,351,1355,351,-211,-658,-1496,1285,30774,19513,10919,276,129,129,3316,2842,5402,5124,4671,731,253,197,148,6822,19248,9833,3286,15962,26669,16891,6875,19794,137,6524,5700,4807,1716,14065,6217,2074,11991,1545
185,Porensky17,43.34,-105.13,invaded,GREAT_PLAINS,Erockies,Wyoming,2817,126,3.25999999,9312,3043,2657,386,2857,2703,2943,2703,3437,644,74,579,1570,305,1148,305,-238,-727,-1566,1328,33798,21868,12705,281,123,113,2894,2836,5418,5142,4701,717,267,210,159,5924,19303,10046,3385,15918,26764,17125,7036,19728,117,6194,5292,4412,1782,15030,6680,2234,12796,1427
186,Porensky30,40.63,-105.27,invaded,WESTERN_CORDILLERA,Wrockies,Colorado,2791,134,3.799999952,8088,2990,2637,353,2827,2691,2899,2691,5010,811,123,489,1985,503,1668,503,-6,-420,-1003,997,25686,14929,7000,271,139,155,3605,2849,5322,5138,5033,289,247,184,133,8229,15912,8239,2070,13842,26067,17620,8029,18038,149,2686,2325,1848,838,10479,5200,2169,8310,2113
187,Pyke21,47.61803776,-119.6830115,invaded,NORTHAMERICAN_DESERTS,Wrockies,Washington,2832,101,2.660000086,9456,3035,2656,379,2715,2946,2951,2708,2574,399,76,434,1036,296,405,950,254,-608,-1594,1849,39009,26020,15422,289,104,124,1431,2843,7039,5550,4472,2567,284,237,186,4556,16998,8146,1311,15688,27531,15971,4438,23093,113,2918,2456,1955,963,16047,7208,1370,14677,617
188,Pyke3,44.60456358,-120.1924183,invaded,WESTERN_CORDILLERA,Wrockies,Oregon,2833,121,3.599999905,7556,3030,2693,337,2861,2932,2933,2740,3115,393,131,304,1007,432,581,843,55,-573,-1429,1484,37404,23150,12598,291,115,167,2557,2805,6105,5428,4675,1430,345,247,177,5422,15765,8215,2498,13266,27532,16321,5461,22071,46,2523,2351,2075,448,14090,6729,2397,11693,772
189,Pyke8,46.74830998,-119.361636,invaded,NORTHAMERICAN_DESERTS,Wrockies,Washington,2859,117,3.150000095,8977,3065,2693,372,2749,2966,2974,2743,2147,338,47,483,916,200,267,799,148,-743,-1780,1928,46701,31953,20009,298,86,134,1423,2817,6360,5138,4185,2175,337,264,213,3852,18413,9168,1762,16651,27918,16295,4642,23276,54,3278,2855,2513,766,19387,8971,2207,17180,240
190,Pyle1,42.35,-118.65,invaded,NORTHAMERICAN_DESERTS,Wrockies,Oregon,2840,118,3.170000076,8918,3051,2679,372,2739,2955,2959,2729,2217,296,52,401,769,224,273,718,-9,-787,-1771,1762,40454,26798,16057,294,111,112,1447,2816,6089,5050,4009,2080,308,245,184,3968,18215,9644,2840,15375,29010,18221,6879,22131,87,3436,3091,2697,739,18935,8154,2291,16644,1315
191,Pyle9,43.42,-119.62,invaded,NORTHAMERICAN_DESERTS,Wrockies,Oregon,2820,120,3.359999895,8298,3027,2670,357,2725,2927,2930,2717,2922,375,114,342,980,380,453,858,112,-637,-1600,1712,33666,20975,11443,285,124,130,1831,2826,6306,5259,4220,2086,285,223,162,5117,17226,8686,2260,14966,28696,17261,5902,22794,111,3685,3301,2878,807,15317,6706,1942,13375,1366
192,Pyle10,43.19,-120,invaded,NORTHAMERICAN_DESERTS,Wrockies,Oregon,2826,121,3.390000105,8248,3031,2674,357,2813,2933,2935,2724,2336,303,108,303,763,349,403,623,7,-676,-1563,1570,35299,22230,12388,288,121,109,1558,2813,6247,5270,4337,1910,297,230,168,4166,16743,8621,2279,14465,28737,17569,6239,22498,98,3208,2862,2466,742,15500,6903,2080,13420,1335
193,Pyle12,43.24,-120.4,invaded,NORTHAMERICAN_DESERTS,Wrockies,Oregon,2824,123,3.460000038,8120,3030,2675,355,2812,2930,2931,2724,2381,301,107,303,747,355,404,683,22,-698,-1630,1653,34624,21601,11866,287,123,113,1540,2814,6291,5302,4352,1939,296,228,165,4240,17440,8878,2345,15095,28606,17438,6208,22398,100,3442,3052,2654,788,15083,6758,2049,13034,1312
194,Pyle15,43.8,-119,invaded,WESTERN_CORDILLERA,Wrockies,Oregon,2793,121,3.339999914,8222,3005,2643,362,2700,2900,2902,2692,4779,647,147,369,1676,538,738,1555,449,-380,-1434,1883,26371,15418,7402,274,142,134,2074,2854,6354,5351,4225,2129,251,187,133,7905,16184,7605,1496,14687,28472,16933,5696,22776,169,2515,2240,2043,472,12777,5527,1567,11210,1609
195,Pyle17,44.36,-118.93,invaded,WESTERN_CORDILLERA,Wrockies,Oregon,2782,122,3.480000019,7725,2986,2637,349,2695,2884,2884,2689,4793,563,159,330,1568,587,807,1410,312,-411,-1460,1772,22883,12714,5399,269,153,131,1805,2851,6056,5432,4542,1514,239,173,117,7925,16511,7942,2139,14372,27595,16381,5352,22243,186,3989,3728,3313,676,10635,4848,1640,8995,1346
196,Pyle19,44.57,-119.65,invaded,WESTERN_CORDILLERA,Wrockies,Oregon,2842,125,3.5,8132,3047,2689,358,2834,2947,2948,2739,2751,361,101,343,891,341,487,774,50,-630,-1531,1580,40540,26207,15064,295,107,141,2134,2811,6281,5468,4660,1621,338,254,189,4843,16487,8494,2330,14158,27529,16455,5708,21821,56,2508,2337,2085,423,15527,7226,2294,13233,777
197,Reed1,38.52,-109.47,invaded,NORTHAMERICAN_DESERTS,Wrockies,Utah,2867,132,3.289999962,9679,3075,2674,401,2934,2742,2993,2742,2932,374,158,246,986,567,740,567,-101,-831,-1717,1616,49764,34934,22791,303,88,102,2585,2833,5635,4762,3834,1801,334,268,216,5133,18770,10675,3097,15673,29852,20051,9614,20238,46,3383,2765,2255,1128,22085,10169,2684,19401,1428
198,Reed3,38.75,-109.79,invaded,NORTHAMERICAN_DESERTS,Wrockies,Utah,2869,134,3.309999943,9777,3078,2675,403,2935,2972,2997,2744,2057,295,88,302,741,397,448,427,-152,-933,-1857,1705,50367,35489,23309,302,84,75,1817,2827,5417,4554,3729,1688,336,268,219,3701,19601,10988,2931,16670,30241,20040,9238,21003,41,3231,2555,1986,1245,23338,10669,2835,20503,1423
200,Schupp1,39.85,-112.15,invaded,NORTHAMERICAN_DESERTS,Wrockies,Utah,2828,120,2.970000029,10112,3047,2643,404,2816,2962,2962,2700,4471,502,217,257,1466,722,722,1106,84,-608,-1634,1717,38100,25650,15743,289,117,152,2793,2863,5831,4952,3913,1918,273,225,173,7465,18431,9665,2643,15788,29092,19105,8497,20595,127,2814,2389,1925,889,19466,8002,1938,17528,1727
201,Schupp2,40.2,-112.46,invaded,NORTHAMERICAN_DESERTS,Wrockies,Utah,2835,106,2.730000019,9810,3048,2659,389,2825,2959,2966,2711,4239,468,255,204,1358,794,796,1052,117,-540,-1394,1511,39911,26939,16592,292,113,161,2783,2857,6108,5080,4079,2029,284,235,180,7128,16435,8806,2284,14151,28869,18999,8346,20523,110,2033,1797,1497,536,19462,8116,1984,17478,1661
202,Schupp3,38.6,-113.79,invaded,NORTHAMERICAN_DESERTS,Wrockies,Utah,2848,120,3.119999886,9505,3052,2669,383,2918,2739,2974,2728,2206,255,135,203,693,426,538,464,-141,-842,-1673,1532,43175,29460,18494,296,105,84,1786,2827,5653,4773,3960,1693,308,247,192,3950,18437,10204,2912,15525,29553,19769,9245,20308,71,2878,2463,2068,810,20398,9050,2529,17869,1718
203,Schupp4,38.52,-113.55,invaded,NORTHAMERICAN_DESERTS,Wrockies,Utah,2826,119,3.119999886,9484,3031,2651,380,2896,2718,2952,2707,3139,400,178,256,1037,575,865,598,-157,-834,-1662,1505,36941,24395,14575,287,117,116,2307,2841,5401,4519,3596,1805,278,224,171,5460,19380,10871,3571,15809,29748,20737,10798,18950,106,3925,3363,2851,1074,18866,8276,2301,16565,2067
204,Schupp5,39.11,-112.74,invaded,NORTHAMERICAN_DESERTS,Wrockies,Utah,2862,128,3.230000019,9779,3076,2679,397,2855,2992,2992,2739,2386,298,107,284,770,373,373,543,-122,-921,-1977,1855,47804,33357,21584,299,92,93,1983,2820,5381,4566,3723,1658,332,260,208,4248,20799,11102,3016,17783,29888,19609,8629,21259,56,3515,3026,2513,1003,23884,10344,2863,21021,1402
205,Shriver2,48,-114.04,invaded,WESTERN_CORDILLERA,Wrockies,Montana,2810,81,2.650000095,7602,2984,2680,304,2834,2912,2912,2718,7257,1016,417,280,2420,1460,1460,1643,529,-105,-1116,1645,30101,17957,8961,283,133,224,4841,2859,6626,5839,5124,1502,278,209,151,11146,15589,6869,1071,14518,25909,15010,4200,21709,135,2939,2731,2562,378,11233,5272,1900,9333,1061
206,Symstad1,44.59,-104.71,invaded,WESTERN_CORDILLERA,Wrockies,Wyoming,2805,119,3.119999886,9419,3023,2642,381,2899,2687,2930,2687,4778,782,149,538,2135,485,1745,485,-99,-549,-1320,1221,31012,19709,10956,278,127,157,3799,2855,5832,5438,4959,873,253,199,152,7904,18626,9357,2623,16003,26170,16891,6905,19265,141,4948,4660,4070,878,12894,5838,1834,11060,1229
207,Symstad2,43.87,-103.46,invaded,WESTERN_CORDILLERA,Wrockies,South_Dakota,2793,113,3.299999952,8393,2991,2650,341,2879,2691,2907,2691,5305,1049,88,666,2598,353,2114,353,-48,-335,-864,816,26665,15894,7879,272,137,180,4313,2853,5536,5381,5206,330,246,186,136,8637,15614,7641,1548,14067,24546,16256,7079,17467,147,2661,2386,1980,681,10425,5126,2105,8320,1551
208,Symstad3,43.62,-103.47,invaded,WESTERN_CORDILLERA,Wrockies,South_Dakota,2802,120,3.339999914,8773,3008,2648,360,2891,2693,2919,2693,5335,1004,98,656,2622,381,2182,381,-124,-428,-975,851,29351,18110,9566,276,130,166,4556,2854,5445,5331,5148,297,253,196,147,8678,16926,8594,2384,14542,24793,16315,7027,17766,129,3872,3537,3048,824,11487,5560,2132,9355,1365
209,Symstad4,43.71,-102.58,invaded,GREAT_PLAINS,Erockies,South_Dakota,2818,126,3.210000038,9853,3041,2647,394,2919,2695,2948,2695,4325,794,96,610,1985,319,1584,319,-191,-637,-1476,1285,35275,23411,13899,284,117,129,3745,2854,5544,5296,5036,508,262,214,168,7254,19474,9881,2853,16621,25298,16011,6462,18836,121,5812,5223,4725,1087,14209,6564,2076,12133,911
210,Symstad5,43.7,-102.58,invaded,GREAT_PLAINS,Erockies,South_Dakota,2817,126,3.220000029,9827,3038,2646,392,2917,2693,2946,2693,4327,793,96,610,1986,319,1586,319,-211,-662,-1512,1302,34722,22954,13535,283,119,131,3747,2855,5496,5260,5009,487,259,212,165,7257,19849,10136,3054,16796,25372,16163,6658,18714,122,6174,5551,5023,1151,14085,6519,2082,12003,911
211,Symstad6,41.83,-103.71,invaded,GREAT_PLAINS,Erockies,Nebraska,2829,133,3.549999952,8907,3043,2669,374,2921,2719,2948,2719,4299,781,79,628,1992,319,1725,319,-219,-664,-1435,1215,36829,24072,14129,286,115,121,3874,2847,5334,5172,5011,323,284,228,172,7216,18948,10099,3322,15627,26112,17034,7368,18744,93,4928,4456,3790,1138,14382,6907,2516,11866,1256
212,Urza1,40.35,-119.34,invaded,NORTHAMERICAN_DESERTS,Wrockies,Nevada,2860,107,2.99000001,8729,3057,2700,357,2759,2972,2975,2751,1752,222,43,389,629,186,234,580,-74,-850,-1798,1724,47085,31591,19613,303,97,97,1607,2789,6101,4806,3666,2435,365,269,207,3182,18410,9911,2641,15769,29856,19441,7962,21894,0,2890,2320,1731,1158,21883,9677,2637,19246,1291
213,Urza2,40.84,-119.56,invaded,NORTHAMERICAN_DESERTS,Wrockies,Nevada,2842,113,3.049999952,9087,3046,2675,371,2738,2958,2962,2729,2007,256,52,422,750,185,284,691,2,-755,-1678,1680,41235,27557,16781,296,111,103,1264,2815,6298,5027,3926,2372,308,245,186,3616,17297,9166,2329,14969,29577,18968,7416,22161,84,2589,2139,1624,965,19437,8425,2135,17302,1428
214,Urza3,41.6,-120.2,invaded,NORTHAMERICAN_DESERTS,Wrockies,California,2820,116,3.24000001,8468,3022,2664,358,2726,2930,2931,2717,4770,724,68,515,1922,307,439,1744,476,-530,-1767,2243,33670,21278,11908,288,126,145,2174,2855,6720,5576,4549,2171,283,214,163,7892,18337,9124,2110,16227,29180,17984,6293,22887,131,2619,2432,2256,364,14387,6350,1712,12675,1494
215,Wilcox1,41.32,-105.54,invaded,NORTHAMERICAN_DESERTS,Wrockies,Wyoming,2782,130,3.5,8592,2992,2622,370,2869,2677,2898,2677,3176,502,86,511,1345,307,1171,307,-171,-623,-1251,1081,24300,14214,6716,269,144,104,2300,2833,5556,5258,4852,704,233,173,126,5518,16249,8783,2782,13467,27019,18392,8492,18527,155,4936,4095,3076,1860,10924,5023,1757,9167,2257
216,Wilcox2,41.31,-105.66,invaded,NORTHAMERICAN_DESERTS,Wrockies,Wyoming,2783,132,3.559999943,8593,2994,2622,372,2871,2678,2899,2678,3246,503,96,484,1343,340,1175,340,-176,-634,-1266,1090,24545,14386,6843,269,143,104,2314,2836,5592,5265,4825,767,235,175,127,5628,16428,8951,2958,13470,27160,18464,8515,18645,156,5366,4460,3361,2005,11030,5054,1747,9283,2208
217,Hufbauer1,40.559085,-105.144169,invaded,GREAT_PLAINS,Erockies,Colorado,2821,137,3.829999924,8195,3021,2663,358,2859,2719,2930,2719,4599,772,105,500,1871,450,1481,450,-103,-555,-1208,1105,33855,21213,11597,285,121,144,3996,2841,5301,5205,5114,187,284,223,165,7649,17097,9272,2927,14170,25896,17616,8118,17778,101,3260,2874,2391,870,12465,6278,2584,9881,1647
218,Chynoweth1,39.76604,-109.5635,invaded,NORTHAMERICAN_DESERTS,Wrockies,Utah,2827,122,3.069999933,9905,3038,2640,398,2898,2699,2956,2699,3036,410,136,365,1133,442,961,442,-147,-781,-1565,1418,38011,25489,15395,289,112,105,2391,2842,5339,4669,3932,1407,274,227,178,5298,18400,10265,3122,15278,29093,19667,9430,19663,114,3659,3206,2844,815,18300,8103,2147,16153,1888
219,Chynoweth2,40.29092,-109.68361,invaded,NORTHAMERICAN_DESERTS,Wrockies,Utah,2836,138,3.230000019,10326,3062,2635,427,2909,2701,2969,2701,2318,349,134,311,811,445,498,445,-51,-739,-1594,1544,40978,28145,17549,291,105,87,1765,2835,5562,4790,4025,1537,278,235,187,4136,17396,9247,2142,15254,29096,18967,8208,20888,98,2526,2048,1597,929,19734,8559,2022,17712,1572
220,Chynoweth3,39.83576,-109.61202,invaded,NORTHAMERICAN_DESERTS,Wrockies,Utah,2849,128,3.150000095,9981,3062,2656,406,2920,2720,2979,2720,2371,297,111,335,874,367,699,367,-122,-753,-1481,1360,44493,30926,19663,297,97,74,2004,2844,5448,4701,3967,1481,296,248,201,4224,16736,9440,2593,14143,29155,19548,9099,20056,88,2548,2187,1947,601,20904,9304,2420,18484,1655
221,Chynoweth5,40.480805,-109.438229,invaded,NORTHAMERICAN_DESERTS,Wrockies,Utah,2826,132,3.119999886,10302,3050,2627,423,2902,2692,2959,2692,2449,359,138,299,828,451,539,451,-59,-732,-1575,1516,38165,25822,15780,289,113,94,1804,2835,5897,5103,4299,1598,268,225,177,4352,17363,9279,2220,15143,28977,19200,8529,20448,117,2292,1818,1369,924,17649,7622,1778,15871,1612
222,Chynoweth7,40.533605,-109.523564,invaded,NORTHAMERICAN_DESERTS,Wrockies,Utah,2819,132,3.190000057,10020,3041,2627,414,2894,2689,2949,2689,2362,332,135,285,793,427,546,427,-67,-722,-1528,1461,35947,23850,14161,287,117,89,1748,2831,5848,5151,4418,1430,264,218,171,4209,16875,9106,2190,14685,28799,19088,8410,20389,119,2135,1708,1294,841,16239,7093,1781,14458,1699
223,Chynoweth8,40.640878,-109.48689,invaded,NORTHAMERICAN_DESERTS,Wrockies,Utah,2788,131,3.200000048,9926,3010,2600,410,2863,2661,2918,2661,3298,438,174,277,1088,568,802,568,-61,-700,-1559,1497,27955,17431,9253,275,134,113,2106,2844,5912,5186,4423,1489,235,186,142,5709,17907,9635,2591,15316,28692,19894,9725,18967,162,2651,2205,1797,854,13460,5767,1438,12022,2263
224,GerminoBOP1,43.4720833,-116.2338306,invaded,NORTHAMERICAN_DESERTS,Wrockies,Idaho,2850,118,3.190000057,8829,3063,2692,371,2746,2961,2966,2738,3281,477,52,496,1272,239,293,1195,160,-817,-2073,2233,43420,29088,17655,296,99,157,2161,2830,5846,4932,3999,1847,331,256,198,5682,21338,10799,2910,18428,28566,17379,6011,22555,71,4277,3894,3478,799,19605,8719,2557,17048,913
225,DocEnglishBluffER1,51.9413,-122.2757,invaded,WESTERN_CORDILLERA,Wrockies,British_Columbia,2792,118,3.079999924,9229,2987,2602,385,2907,2749,2907,2668,3487,483,137,353,1275,434,1275,719,188,-410,-1020,1208,28201,16974,8283,270,123,135,2308,2843,6567,5657,5073,1494,249,199,148,6001,14240,6927,1141,13099,22842,13396,3150,19692,148,4218,3802,3239,978,10568,5136,1208,9360,594
226,SteelheadPP1,50.7532,-120.8696,invaded,NORTHAMERICAN_DESERTS,Wrockies,British_Columbia,2820,106,2.910000086,8929,3015,2651,364,2912,2773,2934,2704,2955,366,150,244,962,490,909,657,100,-593,-1396,1495,35120,22527,12605,284,112,135,2084,2838,6694,5744,5105,1589,278,226,173,5169,16806,8315,1759,15046,23159,13415,2975,20184,113,3720,3397,3166,554,12575,6041,1583,10992,491
227,NorthThompsonPP1,51.626117,-120.082572,invaded,NORTHAMERICAN_DESERTS,Wrockies,British_Columbia,2809,100,2.789999962,8775,2996,2640,356,2899,2767,2922,2696,4588,541,239,231,1403,766,1398,1074,384,-223,-846,1230,31972,19802,10475,279,120,180,3009,2856,6568,5835,5400,1168,270,216,160,7633,13126,5952,505,12620,22422,12679,2447,19975,132,1287,1201,1111,176,10745,5381,1445,9300,421
228,HaynesLease1,49.095,-119.525,invaded,NORTHAMERICAN_DESERTS,Wrockies,British_Columbia,2835,101,2.880000114,8556,3022,2670,352,2731,2940,2944,2726,3583,418,179,262,1153,616,840,1034,123,-728,-1765,1888,38739,25181,14566,290,107,164,2461,2845,6434,5554,4831,1603,305,242,184,6148,19951,10162,2829,17122,25255,15259,4667,20588,97,5309,5138,4999,310,14333,6815,1877,12456,349
229,Rain1,48.6961138,10.9254779,native,EUROPEAN_MOUNTAIN_MIXED_FORESTS,europe,Germany,2825,80,3.039999962,6793,2965,2701,264,2897,2782,2912,2738,7556,936,409,242,2511,1399,2476,1508,403,-61,-465,867,34109,20252,9978,285,112,292,6454,2847,6691,6135,5731,960,347,238,174,11503,12996,6660,1759,11237,19802,11663,3022,16780,48,3624,3141,2660,964,9273,5132,2166,7107,402
230,Schrobenhausen1,48.562989,11.257031,native,EUROPEAN_MOUNTAIN_MIXED_FORESTS,europe,Germany,2827,80,3.049999952,6765,2966,2704,262,2914,2754,2914,2740,8473,1075,445,263,2892,1537,2892,1632,484,53,-278,763,34831,20712,10278,286,111,311,7591,2843,6651,6129,5746,905,365,241,176,12557,12499,6263,1376,11123,19814,11795,3166,16648,0,3002,2589,2188,814,9270,5179,2246,7024,425
231,Monheim1,48.8384525,10.8461493,native,EUROPEAN_MOUNTAIN_MIXED_FORESTS,europe,Germany,2817,79,3.049999952,6632,2955,2697,258,2888,2774,2903,2732,8195,991,469,227,2695,1535,2616,1707,482,11,-383,865,31647,18313,8486,281,118,266,6213,2847,6903,6256,5808,1095,316,230,164,12244,12702,6442,1637,11065,19633,11468,2863,16770,85,4077,3558,3015,1062,8654,4754,1978,6676,519
232,RioGuadarrama1,40.4218962,-3.9482475,native,MEDITERRANEAN,mediterranean,Spain,2882,108,3.49000001,7206,3053,2742,311,2836,2981,2981,2795,5042,701,116,481,2071,494,494,1528,405,-534,-1746,2152,55239,36989,22181,317,68,258,5042,2846,6235,5358,4366,1869,365,365,250,8274,18579,9417,2323,16256,27746,17130,6517,21229,0,2263,2037,1894,369,19399,9288,3497,15902,623
233,RioManzanares1,40.5065601,-3.7705128,native,MEDITERRANEAN,mediterranean,Spain,2881,113,3.619999886,7148,3052,2739,313,2835,2979,2979,2795,4683,642,110,471,1895,466,466,1397,349,-542,-1707,2057,54752,36502,21753,317,69,246,4683,2841,6172,5320,4377,1795,365,365,249,7769,18130,9206,2248,15883,27632,17032,6467,21165,0,2064,1855,1738,326,19054,9223,3536,15518,652
234,ChervonaKalyna1,50.821111,26.022222,native,NORTHEASTERN_EUROPEAN_MIXED_FORESTS,europe,Ukraine,2811,73,2.539999962,8049,2965,2676,289,2900,2720,2913,2707,6090,981,294,406,2430,917,2368,1000,245,-112,-474,719,31470,19397,9849,278,113,231,4677,2863,6896,6283,5775,1121,270,216,166,9683,12158,6024,1327,10831,19286,10856,2276,17010,127,3646,3103,2550,1096,8784,4741,1643,7141,183
235,Tuchyn1,50.708056,26.5675,native,NORTHEASTERN_EUROPEAN_MIXED_FORESTS,europe,Ukraine,2811,73,2.519999981,8126,2965,2675,290,2913,2718,2913,2706,6092,1000,304,411,2418,939,2418,1017,238,-120,-536,774,31448,19423,9881,278,113,230,4662,2863,6905,6278,5760,1145,268,215,166,9686,12257,6090,1346,10911,19259,10844,2247,17012,128,3884,3320,2732,1152,8845,4748,1616,7229,190
236,Zurich1,47.388636,8.588118,native,EUROPEAN_MOUNTAIN_MIXED_FORESTS,europe,Switzerland,2827,82,3.25,6320,2957,2704,253,2909,2758,2909,2746,12338,1356,714,214,3985,2342,3985,2446,775,377,51,723,34823,19988,9536,289,116,345,11833,2832,6492,6057,5735,757,365,246,174,13664,12449,6108,1332,11117,19727,11588,3114,16613,0,2520,2214,1908,612,8988,5159,2472,6516,570
237,KlamathMarshNWR1,42.968146,-121.573903,invaded,WESTERN_CORDILLERA,Wrockies,Oregon,2809,134,3.920000076,7179,3017,2675,342,2730,2905,2905,2724,6713,1205,164,585,3087,542,625,2873,942,-281,-1490,2431,29138,16851,8204,281,136,144,2779,2845,6301,5589,4835,1466,294,203,146,10478,16507,8188,1936,14571,28483,17405,6113,22370,148,2358,2101,1794,564,11522,5491,2037,9485,1384
240,MarbleCanyon1,50.838,-121.709,invaded,NORTHAMERICAN_DESERTS,Wrockies,British_Columbia,2776,104,3,8136,2958,2612,346,2858,2734,2881,2674,4239,443,216,233,1283,659,1248,1010,320,-309,-975,1294,22377,12254,4908,263,144,163,2376,2848,6872,5819,5171,1701,235,173,120,7128,13934,6520,969,12964,22920,12971,2558,20362,180,3011,2843,2627,384,8899,4319,1115,7784,1235
245,Tekapo1,-44.006901,170.495575,invaded,AUS-NZ,AUS-NZ,New_Zealand,2814,75,3.559999943,4308,2918,2707,211,2833,2851,2868,2756,9241,935,617,99,2525,2044,2307,2334,403,-101,-695,1098,30156,14190,4035,100,319,365,9241,2814,6716,6149,5781,935,365,257,147,12524,14396,8397,3324,11072,23483,14931,5541,17942,0,5385,4799,4149,1236,6864,4471,2271,4593,762
246,Ruataniwha1,-44.292783,170.11389,invaded,AUS-NZ,AUS-NZ,New_Zealand,2832,75,3.519999981,4373,2935,2722,213,2853,2868,2886,2773,6415,699,408,130,1807,1416,1666,1562,291,-276,-864,1155,36667,19274,7095,115,292,359,6415,2832,6772,6040,5624,1148,365,296,189,10102,14127,7874,2444,11683,23118,14570,5257,17861,0,3421,2868,2135,1287,7986,5203,2463,5523,437
248,CloudyPeak1,-44.90381493,169.500903,invaded,AUS-NZ,AUS-NZ,New_Zealand,2785,83,4.03000021,4074,2888,2682,206,2824,2740,2836,2730,5779,704,350,190,1775,1136,1757,1184,115,-288,-726,841,19815,7151,562,62,360,261,4392,2805,6644,6326,6010,634,313,193,68,9275,13022,7502,3055,9967,23218,14286,4608,18610,93,7253,6225,5071,2181,5258,3460,1967,3291,809
249,StonyCreek1,-44.38826691,170.4288644,invaded,AUS-NZ,AUS-NZ,New_Zealand,2808,80,3.859999895,4009,2910,2703,207,2845,2763,2857,2753,5685,635,408,124,1611,1307,1570,1365,152,-325,-861,1013,27703,12085,2632,88,329,347,5685,2805,6552,6156,5852,700,365,250,125,9150,13672,7775,2786,10886,23036,14406,5076,17960,0,5125,4376,3408,1717,6303,4215,2313,3990,728
251,Dubois1,43.528122,-109.588172,invaded,NORTHAMERICAN_DESERTS,Wrockies,Wyoming,2767,121,3.480000019,7961,2963,2616,347,2799,2669,2873,2669,2135,365,63,519,897,208,692,208,-190,-702,-1411,1222,19909,10566,3984,260,158,81,1505,2815,5940,5418,4900,1040,219,159,103,3831,16303,8747,2574,13728,27994,18672,7838,20156,170,4601,4133,3564,1037,9169,4319,1467,7702,2162
252,LincolnNF1,32.827545,-105.66178,invaded,WESTERN_CORDILLERA,Wrockies,New_Mexico,2821,112,3.859999895,6871,2976,2686,290,2896,2780,2908,2733,6476,1279,209,664,3292,761,3147,1005,9,-517,-1312,1321,33223,19708,9606,286,114,215,5472,2847,5623,4852,4258,1365,318,232,173,10179,17066,10404,3882,13184,27683,19935,11456,16227,84,3554,2746,1811,1743,11380,6440,3033,8347,2550
253,ArkansasValley_CO,38.8157,-106.08334,invaded,WESTERN_CORDILLERA,Wrockies,Colorado,2766,155,4.170000076,8005,2959,2586,373,2862,2663,2868,2663,2400,428,86,504,1016,302,998,302,-134,-670,-1283,1149,20182,10510,3516,261,151,79,1625,2825,5850,5436,5109,741,222,166,111,4272,14844,8624,2418,12426,28493,20040,10153,18340,170,2671,2332,1766,906,7877,4163,1436,6441,2578
254,ChacoCanyon_NM,36.01613,-107.92401,invaded,NORTHAMERICAN_DESERTS,Wrockies,New_Mexico,2850,126,3.519999981,8704,3038,2681,357,2952,2899,2963,2739,2449,399,128,428,1033,439,891,448,-187,-877,-1704,1518,43726,29289,17889,298,99,79,2149,2837,5413,4679,3794,1619,330,257,200,4352,18345,10751,3448,14897,30167,20729,10522,19645,58,3803,3017,2398,1406,17062,8836,2806,14256,1909
255,Jemez_NM,35.75782,-106.70213,invaded,WESTERN_CORDILLERA,Wrockies,New_Mexico,2837,124,3.74000001,7959,3013,2681,332,2929,2883,2939,2734,3797,616,209,416,1565,673,1395,737,-47,-662,-1394,1346,39027,25063,14216,294,107,134,3170,2839,5397,4985,4389,1008,322,247,188,6472,16082,9692,3184,12899,28477,20087,10896,17581,71,2047,1643,1225,823,13217,7355,2758,10459,2094
256,ElPrado_NM,36.44828,-105.58631,invaded,NORTHAMERICAN_DESERTS,Wrockies,New_Mexico,2808,131,3.700000048,8059,2990,2635,355,2902,2703,2910,2703,4458,699,233,401,1785,734,1678,734,-57,-530,-1162,1105,30689,18613,9331,284,124,139,3302,2851,5492,5098,4585,907,271,212,161,7447,14682,8909,3085,11597,28232,20214,10867,17365,127,2428,1979,1460,968,10710,5970,2134,8576,2162
257,Lathrop_CO,37.61027,-104.82936,invaded,GREAT_PLAINS,Erockies,Colorado,2818,145,4,8393,3015,2653,362,2928,2712,2928,2712,5192,719,246,365,1809,796,1809,796,-182,-699,-1383,1200,33576,21160,11609,287,122,151,3817,2855,5217,5039,4851,366,279,218,166,8482,18738,11169,4618,14120,27155,19586,10543,16612,114,5839,5252,4180,1659,12477,6471,2493,9984,1969
258,Pakowki1,49.39317,-111.104537,invaded,GREAT_PLAINS,Erockies,Alberta,2796,115,3.079999924,9455,3001,2628,373,2893,2672,2916,2672,3539,705,139,547,1542,455,1397,455,-61,-576,-1446,1386,29355,18274,9420,275,123,125,2622,2849,5944,5397,4986,958,244,200,153,6080,17771,8623,2167,15604,25517,14989,4365,21152,144,5021,4704,4219,802,11564,5568,1616,9948,866
259,Marysville1,49.630897,-115.96087,invaded,WESTERN_CORDILLERA,Wrockies,British_Columbia,2799,114,3.130000114,8638,2992,2629,363,2885,2753,2911,2688,5091,720,289,290,1672,922,1489,1300,439,-288,-1123,1562,28940,17409,8716,275,128,170,2933,2862,6381,5674,5109,1272,257,202,148,8342,15207,6966,756,14450,24596,14368,3756,20840,151,1465,1345,1208,258,11024,5217,1463,9561,1003
260,Wellfleet1,40.802,-100.679,invaded,GREAT_PLAINS,Erockies,Nebraska,2831,122,3.210000038,9651,3041,2662,379,2931,2707,2956,2707,5910,1029,95,636,2792,377,2540,377,-174,-552,-1177,1003,38553,25929,15721,289,110,171,5297,2862,5630,5482,5279,351,277,229,180,9448,19593,10261,3065,16528,24932,16715,7849,17083,100,5516,4811,4295,1221,13622,6647,2195,11427,904
261,Lasky3,36.06511333,-112.1212283,invaded,WESTERN_CORDILLERA,Wrockies,Arizona,2829,134,3.74000001,8582,3022,2663,359,2932,2873,2941,2720,4018,559,92,368,1279,483,1015,1225,125,-652,-1820,1945,36884,23830,13703,290,115,135,2429,2850,5061,4560,3747,1314,294,231,176,6802,19081,9759,2758,16323,29006,16936,5661,23345,108,6494,5380,4458,2036,15104,7804,2686,12418,1809
262,SouthCharleston1,38.366662,-81.687081,invaded,SOUTHEASTERN_PLAINS_FORESTS,Erockies,West_Virginia,2868,95,3.019999981,8012,3025,2709,316,2951,2877,2969,2761,10902,1261,710,183,3502,2320,3253,2357,562,47,-434,997,50163,33696,20836,314,85,365,10902,2869,6164,5847,5538,626,365,285,230,15069,15004,8360,2502,12503,21909,14627,6380,15529,0,2427,2071,1530,897,11866,7153,3009,8857,224
263,Lexington1,38.05641,-84.51888,invaded,SOUTHEASTERN_PLAINS_FORESTS,Erockies,Kentucky,2864,96,2.950000048,8333,3029,2705,324,2950,2924,2969,2753,12080,1359,842,155,3671,2587,3208,2764,707,83,-558,1266,48374,32586,20159,309,89,365,12080,2864,5934,5751,5562,372,365,276,221,16153,15942,8959,2844,13098,22162,14913,6479,15683,0,3347,2891,2197,1150,12882,7289,2758,10124,290
264,TailOfTheDragon1,35.50371,-83.97611,invaded,SOUTHEASTERN_PLAINS_FORESTS,Erockies,Tennessee,2877,96,3.210000038,7403,3024,2725,299,2778,2930,2970,2778,14324,1516,770,179,4329,2644,3535,4329,1011,224,-468,1479,53362,35731,21991,318,75,365,14324,2878,6179,5875,5562,617,365,309,244,18005,15271,9343,3550,11722,22062,15599,7867,14195,0,3850,3130,2209,1641,12025,7434,3322,8703,409
266,Gadsden1,33.9958,-86.08133,invaded,SOUTHEASTERN_PLAINS_FORESTS,Erockies,Alabama,2898,98,3.309999943,7369,3047,2751,296,2818,2952,2991,2801,13079,1300,800,133,3769,2643,3150,3664,729,3,-641,1370,61056,42806,27276,329,61,365,13079,2899,6029,5841,5611,418,365,365,269,17010,16740,10577,4426,12314,21985,15889,8294,13691,0,3559,2985,2133,1425,13836,8630,3843,9993,163
267,Etowah1,34.125153,-84.807382,invaded,SOUTHEASTERN_PLAINS_FORESTS,Erockies,Georgia,2895,98,3.289999962,7360,3045,2747,298,2815,2947,2988,2797,12440,1215,825,117,3543,2702,3126,3397,588,-90,-717,1304,59808,41558,26351,327,63,365,12440,2895,5986,5802,5538,448,365,365,265,16468,17037,10964,4878,12159,21875,15804,8283,13592,0,4227,3509,2491,1735,13788,8520,3786,10002,222
268,BrownStreet1,35.78389,-80.26138,invaded,SOUTHEASTERN_PLAINS_FORESTS,Erockies,North_Carolina,2883,101,3.25999999,7545,3041,2731,310,2980,2835,2980,2784,11418,1167,825,104,3269,2557,3269,2659,395,-137,-672,1067,55498,37518,23498,321,75,365,11418,2884,5970,5705,5376,594,365,321,247,15554,17285,10613,4349,12936,22147,15729,8231,13916,0,4383,3696,2869,1515,13461,8099,3593,9868,226
269,Richmond1,37.53666,-77.42661,invaded,SOUTHEASTERN_PLAINS_FORESTS,Erockies,Virginia,2881,97,3.039999962,7897,3045,2728,317,2983,2778,2983,2778,10999,1141,746,138,3233,2425,3233,2425,550,-18,-601,1152,54844,37174,23560,322,80,365,10999,2882,6000,5661,5422,578,365,307,243,15161,15875,9113,3088,12788,22180,15426,7860,14320,0,2750,2381,1867,883,14025,8122,3518,10507,36
270,ChesapeakeBeach1,36.91339,-76.071514,invaded,SOUTHEASTERN_PLAINS_FORESTS,Erockies,Virginia,2885,51,2,7394,3014,2757,257,2976,2813,2978,2791,11819,1393,811,193,3861,2551,3731,2552,425,-61,-623,1049,56123,37894,23634,333,86,365,11819,2885,6277,5902,5688,589,365,345,248,15920,17088,10170,4250,12839,23440,15980,7750,15690,0,4373,3867,3101,1273,12323,7678,3706,8617,-5
271,HappyJacks1,-35.99964,148.45997,invaded,AUS-NZ,AUS-NZ,Australia,2816,88,3.75,5180,2945,2711,234,2749,2880,2882,2749,11886,1459,662,260,3951,2024,2314,3951,931,70,-981,1913,30681,15569,5753,96,309,365,11886,2816,6927,6163,5497,1430,365,243,153,12697,16535,8832,2731,13805,26939,17245,7183,19756,0,3542,3127,2694,848,8213,4681,2018,6195,1389
272,SumnerRd1,46.698,-116.812,invaded,WESTERN_CORDILLERA,Wrockies,Idaho,2822,110,3.25999999,7788,3012,2676,336,2731,2922,2924,2725,5281,675,173,357,1863,598,763,1658,374,-457,-1671,2044,33914,20864,10956,284,118,186,2979,2849,6387,5518,4572,1815,297,231,167,8604,18438,8814,2072,16366,27184,15396,4451,22733,111,3553,3204,2924,628,13297,6237,1983,11314,801
273,ElkBisonPrairie1,36.790864,-88.06507,invaded,SOUTHEASTERN_PLAINS_FORESTS,Erockies,Kentucky,2880,75,2.420000076,8375,3033,2725,308,2877,2941,2986,2768,13492,1395,824,135,3782,2690,3091,3603,937,141,-713,1650,54245,37265,23932,319,80,365,13492,2880,6049,5849,5649,400,365,295,240,17349,16870,9492,3044,13826,22540,15353,6936,15604,0,3335,2833,2138,1196,13839,7893,2955,10884,177
275,OFallon1,38.5987833,-89.9200742,invaded,SOUTHEASTERN_PLAINS_FORESTS,Erockies,Illinois,2867,95,2.730000019,9177,3043,2695,348,2922,2743,2982,2743,11933,1391,657,211,3785,2151,3350,2151,600,8,-680,1280,49563,34648,22250,310,86,298,10662,2896,5891,5629,5381,510,340,271,225,16022,17522,9542,2858,14664,23165,15455,6742,16423,54,3877,3276,2479,1399,14443,7897,2552,11891,166
276,Waterloo1,41.28668333,-96.24690333,invaded,GREAT_PLAINS,Erockies,Nebraska,2838,103,2.670000076,10326,3034,2648,386,2945,2699,2967,2699,8021,1236,209,513,3313,721,3229,721,-8,-323,-951,943,41785,28932,18133,296,102,251,6810,2895,6127,5768,5481,646,278,237,195,12045,18839,9727,2573,16267,23795,15599,6849,16946,108,4988,4378,3683,1305,13223,6690,1799,11424,365
277,Thomas01,44.951503,-74.932863,invaded,MIXED_WOOD_PLAINS,Erockies,New_York,2804,91,2.349999905,10124,2990,2603,387,2919,2679,2929,2669,10026,1027,577,182,2944,1846,2914,1971,525,12,-573,1097,32773,21126,11726,283,119,209,6655,2878,6248,5929,5551,697,254,211,165,11665,15763,7947,2012,13751,21372,13167,4401,16971,149,5049,4688,3964,1086,10009,5085,1292,8717,71
278,Tulln1,48.307257,15.898858,native,EUROPEAN_MOUNTAIN_MIXED_FORESTS,europe,Austria,2833,85,2.920000076,7487,2983,2692,291,2929,2736,2929,2736,6391,808,306,346,2372,1028,2372,1028,215,-175,-578,793,37445,23471,12675,289,103,276,5565,2860,6544,6057,5691,853,325,246,187,10071,13577,6927,1727,11850,19684,11842,3258,16426,67,3561,3232,2857,704,10371,5633,2181,8190,185
279,Langenzersdorf1,48.30277778,16.36638889,native,EUROPEAN_MOUNTAIN_MIXED_FORESTS,europe,Austria,2836,84,2.829999924,7600,2990,2695,295,2933,2737,2933,2737,5862,700,289,308,2055,985,2055,985,229,-214,-695,923,38475,24362,13424,291,102,261,5124,2855,6602,6045,5626,976,333,248,190,9385,13714,6888,1484,12230,20130,12225,3476,16654,51,3294,3042,2684,610,10948,5817,2160,8788,215
280,Sungbuk1,37.59605,127.0070944,invaded,Asia,Asia,South_Korea,2847,93,2.470000029,9864,3013,2636,377,2964,2715,2969,2715,15495,4451,224,1011,9759,716,9434,716,3094,481,-161,3256,44132,30581,19275,303,99,268,14571,2894,6843,5879,5416,1427,296,248,205,15446,12883,7704,2397,10486,20313,14717,8639,11674,89,2379,2128,1857,522,10548,6257,2185,8363,105
281,MtHermon1,33.305359,35.78454,native,MEDITERRANEAN,mediterranean,Lebanon,2812,120,3.930000067,6817,2974,2668,306,2725,2895,2897,2725,9350,2260,11,1020,5852,52,61,5852,1535,-532,-2194,3730,30174,17410,7880,291,132,132,2275,2843,5620,4714,3838,1782,296,221,160,12350,22049,12810,5492,16557,29276,21066,11355,17921,152,7065,6542,5778,1287,12235,6576,2488,9747,1789
282,MtHermon2,33.317017,35.808246,native,MEDITERRANEAN,mediterranean,Lebanon,2816,121,3.940000057,6803,2979,2672,307,2729,2899,2901,2729,9373,2255,11,1013,5831,51,60,5831,1596,-436,-2064,3660,31505,18393,8574,294,128,140,2685,2841,5712,4804,3954,1758,306,226,167,12697,20741,11861,4807,15934,29335,20243,10036,19299,137,5710,5253,4633,1077,12308,6659,2494,9814,2010
283,Noordwijk1,52.251682,4.437516,native,EUROPEAN_MOUNTAIN_MIXED_FORESTS,europe,Netherlands,2835,39,2.25999999,4830,2927,2753,174,2849,2820,2898,2775,9654,1095,438,244,3136,1718,2754,2354,608,12,-555,1163,37905,20245,8633,305,120,365,9654,2835,6728,6402,6176,552,365,287,186,13827,13255,7647,3605,9649,20228,11041,2066,18162,0,7237,5940,5025,2212,7493,4798,2731,4762,4
284,Bessungen1,49.849071,8.641801,native,EUROPEAN_MOUNTAIN_MIXED_FORESTS,europe,Germany,2833,77,3.039999962,6506,2971,2718,253,2902,2791,2918,2750,8398,808,552,116,2364,1829,2301,1946,572,56,-468,1040,37323,21952,11040,290,108,365,8398,2834,6794,6168,5724,1070,365,254,183,12473,12422,6110,1451,10971,19511,11015,2445,17066,0,3251,2782,2368,882,9819,5392,2288,7531,161
285,MurraySettlement1,46.81907,-65.48459,invaded,MIXED_WOOD_PLAINS,Erockies,New_Brunswick,2785,92,2.339999914,10005,2975,2583,392,2741,2709,2910,2652,10498,1016,681,105,2874,2238,2727,2424,761,237,-331,1092,27733,16980,8627,276,133,187,6042,2866,6158,5959,5802,356,238,191,144,10099,12628,6038,1125,11503,19993,12500,4443,15550,166,3038,2839,2515,523,8846,4423,1111,7735,40
286,Babaikha1,56.105421,37.396155,native,NORTHEASTERN_EUROPEAN_MIXED_FORESTS,europe,Russia,2780,67,2.019999981,9435,2955,2622,333,2901,2718,2901,2660,7057,853,332,303,2502,1083,2502,1414,424,47,-514,938,25730,15437,7339,261,124,180,4402,2862,7253,6346,5530,1723,226,184,138,9704,11795,5213,825,10970,18819,9712,1211,17608,181,3461,3065,2506,955,8872,4110,990,7882,189
287,Karlsruhe1,49.03954,8.39221,native,EUROPEAN_MOUNTAIN_MIXED_FORESTS,europe,Germany,2841,77,3,6613,2980,2723,257,2798,2799,2928,2757,8482,843,582,129,2384,1861,2131,2098,637,40,-549,1186,40243,24173,12722,295,102,365,8482,2842,6677,6107,5683,994,365,265,194,12567,12932,6395,1558,11374,19711,11420,2834,16877,0,3124,2644,2215,909,10494,5758,2484,8010,117
288,Karlsruhe3,49.04015,8.39116,native,EUROPEAN_MOUNTAIN_MIXED_FORESTS,europe,Germany,2842,77,2.99000001,6606,2980,2723,257,2798,2799,2928,2757,8438,840,579,129,2374,1852,2116,2091,618,18,-578,1196,40334,24229,12751,295,102,365,8438,2842,6676,6105,5681,995,365,265,194,12518,13164,6579,1720,11443,19710,11417,2831,16879,0,3343,2829,2370,973,10511,5767,2489,8022,117
294,BoiseHigh,43.208482,-116.995198,invaded,NORTHAMERICAN_DESERTS,Wrockies,Idaho,2813,110,2.950000048,8946,3025,2653,372,2803,2928,2931,2701,4458,558,122,405,1495,431,594,1413,262,-587,-1742,2004,32747,20633,11405,283,126,149,2246,2860,5893,5025,4019,1874,269,213,158,7447,18755,9438,2627,16128,28356,17371,6314,22042,139,4357,3879,3472,885,16046,6859,1929,14117,1495
295,Arcata1,40.876563,-123.997177,invaded,MARINE_WEST_COAST_FOREST,Wrockies,California,2846,69,5.070000172,2229,2925,2789,136,2822,2876,2876,2818,14967,3246,62,812,7764,361,361,7572,2867,371,-1464,4332,41989,23739,6761,324,79,365,14967,2847,6632,6439,6295,337,365,365,246,15357,15260,8328,2396,12863,28118,16990,5859,22259,0,1937,1691,1352,585,6113,4872,4050,2063,72
296,Donnelly02,39.101222,-96.607987,invaded,GREAT_PLAINS,Erockies,Kansas,2860,103,2.769999981,9783,3053,2680,373,2960,2729,2984,2729,8898,1454,174,543,3833,717,3655,717,-67,-367,-965,899,47754,33622,21726,305,91,282,8235,2899,5905,5665,5472,433,310,259,215,13025,20413,10830,3308,17105,24090,15905,7386,16704,77,5393,4642,3965,1428,15290,7722,2357,12933,359
297,Martin02,35.5851836,-97.6058834,invaded,GREAT_PLAINS,Erockies,Oklahoma,2891,104,3,8845,3071,2725,346,2939,2774,3004,2774,8639,1279,298,400,3153,1050,2798,1050,-117,-568,-1562,1445,58475,41107,27399,319,72,283,8639,2869,5701,5522,5311,390,365,303,248,12742,22209,12650,4848,17361,24771,16964,8769,16002,0,5988,5106,4195,1794,18160,9418,3397,14763,355
298,Klyueva03,53.327002,34.21267,native,NORTHEASTERN_EUROPEAN_MIXED_FORESTS,europe,Russia,2794,71,2.160000086,9284,2965,2638,327,2912,2733,2912,2675,6602,812,363,268,2299,1137,2299,1291,282,-129,-622,904,28807,17906,9109,269,117,198,4293,2868,7162,6357,5692,1470,239,198,153,10338,13519,6617,1668,11851,19299,10373,1744,17555,162,4979,4301,3526,1453,8950,4417,1156,7794,150
299,Stanislavschi01,47.761,27.899,native,NORTHEASTERN_EUROPEAN_MIXED_FORESTS,europe,Moldova,2829,82,2.609999895,8652,2991,2678,313,2924,2732,2938,2716,5694,856,271,396,2224,879,2197,898,174,-225,-667,841,37203,24327,13933,288,105,228,4547,2873,6561,5965,5503,1058,287,232,184,9162,13747,6804,1305,12443,20542,12179,3341,17201,109,2961,2719,2373,588,11239,5893,1856,9383,129
300,MA1,52.076897,20.963574,native,NORTHEASTERN_EUROPEAN_MIXED_FORESTS,europe,Poland,2817,73,2.640000105,7415,2965,2689,276,2912,2733,2912,2722,5829,791,309,338,2213,982,2213,1052,198,-204,-598,797,32204,19490,9712,280,113,248,4485,2858,6915,6257,5756,1159,291,224,168,9341,13182,6695,1961,11221,18840,10474,1932,16908,109,4844,4130,3473,1371,9124,4864,1803,7321,115
301,ZW1,53.096042,18.331047,native,NORTHEASTERN_EUROPEAN_MIXED_FORESTS,europe,Poland,2818,71,2.660000086,7130,2963,2695,268,2909,2769,2909,2727,5006,762,239,363,1921,828,1921,877,184,-198,-595,779,32192,19237,9431,282,114,251,4022,2852,6952,6281,5771,1181,301,225,169,8224,12251,5988,1556,10695,18601,10261,1783,16818,94,4070,3495,2991,1079,9006,4835,1821,7185,31
302,Siju01,55.0023792,24.3149262,native,NORTHEASTERN_EUROPEAN_MIXED_FORESTS,europe,Lithuania,2803,67,2.359999895,7732,2954,2672,282,2902,2748,2902,2704,6918,859,377,255,2380,1187,2380,1404,419,43,-403,821,28673,16999,7982,273,120,216,4801,2857,7092,6351,5707,1385,262,207,154,10732,11244,5159,1008,10237,18717,9770,1284,17433,140,3085,2649,2227,857,8437,4394,1512,6925,84
303,Siju02,54.21234,24.58598,native,NORTHEASTERN_EUROPEAN_MIXED_FORESTS,europe,Lithuania,2802,67,2.349999905,7850,2953,2670,283,2902,2748,2902,2701,6992,905,385,273,2450,1199,2450,1424,417,43,-345,763,28515,16938,7960,271,119,214,4709,2857,7172,6415,5788,1384,260,205,153,10823,11226,5222,1004,10222,18480,9789,1410,17070,143,3226,2770,2331,895,8279,4308,1426,6853,137
304,Siju03,55.513564,26.318168,native,NORTHEASTERN_EUROPEAN_MIXED_FORESTS,europe,Lithuania,2795,62,2.150000095,8092,2948,2658,290,2899,2738,2899,2692,6567,850,352,278,2289,1116,2289,1266,321,-62,-565,885,27112,15991,7358,268,122,205,4418,2856,7242,6450,5771,1471,248,197,147,10294,12364,5906,1480,10883,18650,9742,1248,17402,153,4976,4266,3544,1433,8211,4130,1333,6878,155
305,Siju04,54.5540331,25.262535,native,NORTHEASTERN_EUROPEAN_MIXED_FORESTS,europe,Lithuania,2797,66,2.309999943,7937,2950,2664,286,2899,2742,2899,2696,6919,883,386,262,2407,1224,2407,1409,408,25,-413,821,27517,16194,7447,269,121,208,4581,2855,7266,6445,5774,1492,253,201,149,10733,11344,5326,1078,10266,18392,9768,1397,16995,150,3734,3194,2667,1067,8149,4182,1337,6812,147
306,Bielany1,53.01939167,18.5779,native,NORTHEASTERN_EUROPEAN_MIXED_FORESTS,europe,Poland,2817,72,2.670000076,7151,2963,2694,269,2909,2769,2909,2726,5200,811,251,371,2006,852,2006,914,239,-138,-539,778,32076,19172,9369,281,114,257,4079,2854,6988,6302,5783,1205,299,224,168,8493,11708,5545,1183,10525,18664,10322,1820,16844,96,3214,2765,2363,850,8973,4796,1790,7183,49
307,Gorsk1,53.04826389,18.45962222,native,NORTHEASTERN_EUROPEAN_MIXED_FORESTS,europe,Poland,2818,72,2.660000086,7151,2964,2695,269,2910,2769,2910,2727,4985,770,240,368,1918,821,1918,872,185,-197,-595,780,32253,19297,9491,282,115,248,4011,2852,6918,6262,5769,1149,301,225,168,8195,12212,5958,1540,10673,18605,10273,1796,16809,94,3962,3407,2914,1048,9054,4861,1840,7214,35
308,KowalewoPomorskie1,53.16789549,18.87115499,native,NORTHEASTERN_EUROPEAN_MIXED_FORESTS,europe,Poland,2813,71,2.660000086,7109,2957,2690,267,2904,2765,2904,2722,5616,882,267,376,2183,903,2183,983,191,-203,-603,794,30879,18227,8619,279,117,248,4356,2853,7095,6392,5873,1222,292,220,163,9058,12946,6515,1915,11031,18702,10280,1769,16933,107,5182,4417,3753,1429,8476,4556,1687,6789,88
309,Sierakowo1,53.176065,18.857361,native,NORTHEASTERN_EUROPEAN_MIXED_FORESTS,europe,Poland,2813,71,2.650000095,7088,2957,2690,267,2904,2764,2904,2722,5611,882,266,376,2182,901,2182,981,184,-210,-610,794,30694,18069,8517,279,117,248,4353,2852,7098,6391,5870,1228,292,220,163,9051,13040,6589,1971,11069,18707,10282,1767,16940,107,5338,4550,3866,1471,8445,4540,1685,6760,94
310,Bydgoszcz1,53.12905278,18.03466667,native,NORTHEASTERN_EUROPEAN_MIXED_FORESTS,europe,Poland,2817,71,2.680000067,7086,2961,2695,266,2908,2769,2908,2727,5127,750,245,347,1944,867,1944,908,234,-134,-524,758,32009,19054,9269,281,115,258,3982,2853,6996,6320,5808,1188,301,225,167,8392,11521,5451,1153,10368,18575,10257,1785,16790,95,3047,2613,2236,811,8864,4761,1798,7066,51
